ATC ID,Site Name,Initial Rent,Latitude,Longitude,City,County,Street
618001,Bungoma Stadium,120000,0.591345,34.552905,Bungoma,Bungoma,Mumias - Bungoma Rd
618002,Bungoma South,200000,0.558877,34.560273,Bungoma,Bungoma,Mumias - Bungoma Rd
618003,Busia Lwero,100000,0.459231,34.11786,Busia,Busia,Kisumu - Busia Rd
618004,Leisure Lodge,469003,-4.27827,39.590513,Mombasa,Mombasa,Diani Beach Road
618005,Diani Exchange,173522,-4.303082,39.579153,Mombasa,Mombasa,Diani Beach Road
618006,Msambweni Exc,173522,-4.479872,39.482115,Msambweni,Kwale,Off Ukunda-Ramisi Road
618007,Lunga Lunga Eackelberg,120000,-4.5597,39.129315,Lunga Lunga,Kwale,Lungalunga-Mtandikeni Rd
618008,Reef Hotel,744638,-4.271608,39.594932,Diani,Kwale,Diani Beach Road
618009,Diani Sea Resort,300000,-4.315773,39.573173,Diani,Kwale,80401 Diani Beach Road
618010,Leisure Lodge2,570113,-4.281229,39.591964,Mombasa,Mombasa,Diani Beach Road
618011,Embu,175713,-0.534481,37.450065,Embu,Embu,Meru - Nairobi Hwy
618012,Kamugere,175713,-0.420284,37.524577,Kamugere,Nyeri,Unnamed Road
618013,Langas,180000,0.482392,35.255608,Eldoret,Uasin Gishu,Eldoret -Webuye - Malaba Rd
618014,Broadway Industries,350000,0.502002,35.300918,Eldoret,Uasin Gishu,Elijah Cheriyot St
618015,West Indies,250000,0.518013,35.257315,Eldoret,Uasin Gishu,A1
618016,Eldoret TKL HSE,339745,0.516572,35.27506,Eldoret,Uasin Gishu,Elijah Cheriyot St
618017,Eldoret Hill,339745,0.534255,35.281835,Eldoret,Uasin Gishu,Kitale - Cherangani Rd
618018,Mwitirithia,150000,0.533865,35.304002,Eldoret,Uasin Gishu,Eldoret -Webuye - Malaba Rd
618019,Kahoya,256551,0.548367,35.237095,Eldoret,Uasin Gishu,Eldoret -Webuye - Malaba Rd
618020,DC Office,300000,0.531458,35.243297,Eldoret,Uasin Gishu,Off Eldoret-Kitale Road
618021,KFS,262500,0.521698,35.264757,Eldoret,Uasin Gishu,Eldoret -Webuye - Malaba Rd
618022,Saleyard,150000,0.509877,35.266535,Eldoret,Uasin Gishu,Eldoret -Webuye - Malaba Rd
618023,Kipsona Estate,100000,0.568198,35.234947,Eldoret,Uasin Gishu,Eldoret -Webuye - Malaba Rd
618024,Eldoret West Campus,170000,0.559867,35.24203,Eldoret,Uasin Gishu,Eldoret -Webuye - Malaba Rd
618025,African Holy Ghost Church,200000,0.528998,35.252792,Eldoret,Uasin Gishu,Eldoret -Webuye - Malaba Rd
618026,Goodnews Kahoya,130000,0.541247,35.239255,Eldoret,Uasin Gishu,Eldoret -Webuye - Malaba Rd
618027,Kogo Plaza,1459600,0.518947,35.271212,Eldoret,Uasin Gishu,Eldoret -Webuye - Malaba Rd
618028,Road Block,200000,0.548983,35.245822,Eldoret,Uasin Gishu,Eldoret -Webuye - Malaba Rd
618029,Railways Eldoret,500000,0.52284,35.274582,Eldoret,Uasin Gishu,Station Rd
618030,Eldoret-R,200000,0.529227,35.261022,Eldoret,Uasin Gishu,145 Mitaa Rd
618031,IPCH church,180000,0.508125,35.309,Eldoret,Uasin Gishu,Eldoret -Webuye - Malaba Rd
618032,Munyaka Police Station,180000,0.521365,35.311675,Eldoret,Uasin Gishu,Eldoret - Nakuru Rd
618034,Central Primary School,250000,0.519562,35.281368,Eldoret,Uasin Gishu,Eldoret -Webuye - Malaba Rd
618035,Elgon View Estate,160000,0.502697,35.275303,Eldoret,Uasin Gishu,Eldoret -Webuye - Malaba Rd
618036,Kisumu Road Garage,250000,0.509507,35.273562,Eldoret,Uasin Gishu,Unnamed Road
618037,Little Lambs School,200000,0.50636,35.294032,Eldoret,Uasin Gishu,Eldoret -Webuye - Malaba Rd
618038,Longonot Center,140000,0.48234,35.344123,Eldoret,Uasin Gishu,Eldoret -Webuye - Malaba Rd
618039,Moi University Annex-GF,335536,0.477217,35.301073,Eldoret,Uasin Gishu,Eldoret-Nakuru Road
618040,Church Of Jesus Eldoret,200000,0.483698,35.270158,Eldoret,Uasin Gishu,Unnamed Road
618041,Eldoret Langas 2,150000,0.473678,35.256287,Eldoret,Uasin Gishu,Unnamed Road
618042,Kapseret,182325,0.449162,35.240775,Eldoret,Uasin Gishu,Plateau Rd
618043,Kesses-GF1,130000,0.294455,35.326117,Eldoret,Uasin Gishu,Eldoret -Webuye - Malaba Rd
618044,Ngeria Shopping Center,170000,0.39297,35.329772,Eldoret,Uasin Gishu,Eldoret - Nakuru Rd
618045,Kamogich Plaza,160000,0.67083,35.509823,Iten,Elgeyo Marakwet,Off Kapshow Road
618046,Inabtich Primary School,250000,0.55491,35.32119,Eldoret,Uasin Gishu,Eldoret -Webuye - Malaba Rd
618047,Plateau,250000,0.488303,35.28648,Eldoret,Uasin Gishu,Elgeyo Rd
618048,Marigat,205218,0.470643,35.984632,Marigat,Baringo,C51
618049,Makutano UXD KEEP,166000,1.255858,35.09239,Makutano,West Pokot,Kitale to Kapenguria Road
618050,Sergoit,100000,0.642613,35.39245,Sergoit,Uasin Gishu,C50
618051,Kamorin,205218,0.65892,35.504137,Kamorin,Elgeyo Marakwet,Kapchigomet
618052,Kapsowar,205218,0.976122,35.565837,Kapsowar,Elgeyo Marakwet,Eldoret -Webuye - Malaba Rd
618053,Kabarnet,205218,0.493137,35.744322,Kabarnet,Baringo,Nakuru - Sigor Rd
618054,Kabartonjo,205218,0.627933,35.79417,Kabartonjo,Baringo,kabartonjo kipsaraman road
618055,Kuinet,100000,0.623288,35.310628,Eldoret,Uasin Gishu,Unnamed Road
618057,Webuye,214039,0.603593,34.77464,Webuye,Bungoma,Stage Street road
618058,Cherubei,205218,1.168885,34.787332,Cherubei,Bungoma,Unnamed Road
618059,Kapsokwony,193995,0.842573,34.714678,Kapsokwony,Bungoma,Unnamed Road
618060,Kimilili,193995,0.788238,34.713157,Kimilili,Bungoma,Chwele - Kimilili - Kamukuywa Rd
618061,Sirungai,193995,0.553838,34.928948,Sirungai,Uasin Gishu,Eldoret -Webuye - Malaba Rd
618062,Soy,263881,0.676688,35.155628,Eldoret,Uasin Gishu,Eldoret-Kitale Rd
618063,Kongoni,210000,0.795157,35.140998,Kongoni,Uasin Gishu,Eldoret-Kitale Rd
618064,Heys Bridge,249471,0.88066,35.119833,Eldoret,Uasin Gishu,Moi's Path off Eldoret-Kitale Road
618065,Turbo,150000,0.634218,35.049892,Eldoret,Uasin Gishu,Eldoret -Webuye - Malaba Rd
618066,Myanga,120000,0.562948,34.389592,Myanga,Bungoma,C32
618067,Bungoma town,204311,0.566957,34.560117,Bungoma,Bungoma,Moi Ave
618068,Malaba Customs,1009765,0.635498,34.269735,Malaba,Busia,Busia - Malaba Rd
618069,Malaba,168309,0.635125,34.287072,Malaba,Busia,A104
618070,Kocholya,120000,0.61921,34.34282,Malakisi,Bungoma,A104
618071,Sikhendu,120000,0.816827,34.852562,Kitale,Trans-Nzoia,Kakamega - Kitale Rd
618072,Lokichar,166000,2.3776,35.650782,Lokichar,Turkana,Lokichar Loperot Rd
618073,Kapsabet,166000,0.199843,35.096592,Kapsabet,Nandi,1254 C39
618074,Nandi hills,300000,0.09782,35.170583,Eldoret,Uasin Gishu,Samoei - Kaplelmet Rd
618075,Lessos Hilltop,100000,0.209987,35.304803,Eldoret,Uasin Gishu,Ol'Lessos - Lolduga Rd
618076,Shinyalu,100000,0.225065,34.81599,Eldoret,Uasin Gishu,Khayega Shinyalu Rd
618077,Chebunaywa,207900,0.072914,34.795411,Hamisi,Vihiga,Off Shamakhokho-Gisambai Road
618078,Baraton University,166000,0.253562,35.081633,Baraton,Nandi,Chepterit - Baraton Rd
618079,Serem,120000,0.075095,34.858567,Serem,Vihiga,Unnamed Road
618080,Ndalat,120000,0.499802,35.147048,Ndalat,Nandi,Farmers St
618081,Lodwar Hill,166000,3.124565,35.588858,Lodwar,Turkana,Unnamed Road
618082,Lokichogio,166000,4.206263,34.342665,Lokichogio,Turkana,Lopiding Rd
618083,Timboroa Hill,166000,0.012992,35.523283,Timboroa,Baringo,Eldoret -Webuye - Malaba Rd
618084,Nabkoi forest,262500,0.120872,35.466572,Nabkoi,Uasin Gishu,Eldoret -Webuye - Malaba Rd
618085,Burnt Forest,220500,0.24213,35.416288,Burnt Forest,Uasin Gishu,Eldoret -Webuye - Malaba Rd
618086,Moi University,100000,0.2902,35.29838,Eldoret,Uasin Gishu,Eldoret -Webuye - Malaba Rd
618087,Eldoret Outspan,304500,0.426947,35.295057,Eldoret,Uasin Gishu,Footpath entrance to Kaimosi Hospital
618088,Matharu,120000,0.089298,35.517703,Eldoret,Uasin Gishu,1023 Eldoret - Nakuru Rd
618089,Tarakwa,207892,0.274043,35.389992,Tarakwa,Uasin Gishu,Eldoret - Nakuru Rd
618090,Kipsarman,275625,0.724817,35.838793,Eldoret,Uasin Gishu,kabartonjo kipsaraman road
618091,Nakobothan,166000,2.278233,35.584982,Nakobothan,Turkana,Unnamed Road
618092,Peleketch,195467,3.670873,35.021943,Peleketch,Turkana,Unnamed Road
618093,Mnagei,166000,1.29454,35.109405,Mnagei,West Pokot,Post Office Rd
618094,Garitei,166000,3.253417,35.478358,Garitei,Turkana,Lodwar - Lokichogio Rd
618095,Luterere,166000,2.791435,35.631425,Luterere,Turkana,Kapenguria - Lodwar Rd
618096,Morua Dou,500000,3.655448,35.503752,Morua Dou,Turkana,Lodwar - Lokichogio Rd
618097,Songot Hill,166000,4.05425,34.516782,Songot,Turkana,Lodwar - Lokichogio Rd
618098,Lokwamur,166000,1.841107,35.578247,Lokwamur,Turkana,Kapenguria - Lodwar Rd
618099,Marichipass,166000,1.574195,35.416352,Marichipass,West Pokot,Unnamed Road
618100,Soy CDMA,130000,0.682445,35.183482,Uasin Gishu,Uasin Gishu,Unnamed Road
618101,Elburgon CDMA,192000,-0.307423,35.808837,Nakuru,Nakuru,Unnamed Road
618102,Modicar_TKL,209725,-0.379273,39.713563,Modicar,Garissa,A3
618103,Garissa province estate,169884,-0.45398,39.642925,Garissa,Garissa,Harambee Road
618104,Garissa Provincial Hospital,150000,-0.464267,39.641798,Garissa,Garissa,Harambee Road
618105,Mbuvu,166000,-0.767365,38.401895,Mbuvu,Kitui,A3
618106,Katumba,166000,-0.733293,38.80989,Katumba,Kitui,Unnamed Road
618107,Madogo,166000,-0.561648,39.392974,Madogo,Garissa,A3
618108,Alangor Arbu,166000,-0.09845,39.983898,Alangor Arbu,Garissa,Garissa-Dadaab Road
618109,Dadaab,166000,0.055268,40.308217,Dadaab,Garissa,A3
618110,Bura TKL,166000,-1.183732,39.837825,Bura,Tana River,Harambee Road
618111,HolaTown,284760,-1.495775,40.027062,HolaTown,Tana River,Unnamed Road
618112,Tula,166000,-0.755621,39.653311,Tula,Isiolo,Harambee Road
618113,Kabarnet Hill,100000,0.481388,35.751155,Kabarnet,Baringo,Kabarnet-Eldama Ravine Road
618114,Kericho_Hospital,160000,-0.359727,35.295948,Kericho,Kericho,Kisumu - Busia Rd
618115,TeaLand,479000,-0.367287,35.284258,Kericho,Kericho,John Kerich Road
618116,Kisii Town,410000,-0.672295,34.770962,Kisii,Kisii,B3
618117,Kisii Milimani,307861,-0.692988,34.774803,Kisii,Kisii,Kisii - Kilgoris Rd
618118,Kisii Vet clinic,300000,-0.680587,34.775198,Kisii,Kisii,B3
618119,Kisii Exchange,166000,-0.677572,34.772207,Kisii,Kisii,C17
618120,Kakamega_South,200000,0.269415,34.752624,Kakamega,Kakamega,Unnamed Road
618121,Muliro Gardens,250000,0.286182,34.75218,Kakamega,Kakamega,A1
618122,Kakamega west,180000,0.279587,34.7398,Kakamega,Kakamega,Kakamega-Mumias Road
618123,Police Line,180000,1.021228,34.999923,Kitale,Trans-Nzoia,Kwanza - Kapenguria Road
618124,Masaba Estate,140000,1.004215,35.020707,Kitale,Trans-Nzoia,Unnamed Road
618125,Kiminini,120000,0.897715,34.922833,Kiminini,Bungoma,Unnamed Road
618126,Nyalenda,205241,-0.125948,34.752655,Kisumu,Kisumu,Unnamed Road
618127,Kassagem,120000,-0.11539,34.773443,Kassagem,Kisumu,Unnamed Road
618128,Kisumu TKL hse,432129,-0.103483,34.75329,Kisumu,Kisumu,New Station Rd
618129,Auji,100000,-0.104477,34.779478,Kisumu,Kisumu,Unnamed Road
618130,Kisumu Mosque,150000,-0.091933,34.759277,Kisumu,Kisumu,Pamba Road
618131,Kondele,100000,-0.080977,34.78077,Kisumu,Kisumu,Kibos Rd
618132,Manyatta,100000,-0.091352,34.785447,Kisumu,Kisumu,Unnamed Road
618133,KSM Nyamasaria,100000,-0.116595,34.784818,Kisumu,Kisumu,Off Nairobi Road
618134,Kisumu Hospital,250000,-0.088257,34.77649,Kisumu,Kisumu,Off Bypass Highway
618135,Kisumu police line,205241,-0.095817,34.764253,Kisumu,Kisumu,Jomo Kenyatta Hwy
618136,Statehouse KR,460000,-0.108127,34.749512,Kisumu,Kisumu,Achieng' Oneko Rd
618138,Tom Mboya Estate,200000,-0.086908,34.7682,Kisumu,Kisumu,40100 Nyerere Rd
618139,Kisumu Ring,110000,-0.117083,34.761222,Kisumu,Kisumu,Ring Rd
618140,Ubinju,325000,-0.098523,34.772432,Kisumu,Kisumu,Kilifi Rd
618141,Grace Ogot,200000,-0.1099,34.762638,Kisumu,Kisumu,Aga Khan Rd
618142,Maseno College Campus,120000,-0.007775,34.593497,Maseno,Kisumu,James_kris
618143,Maseno Magistrates Court,177295,-0.005018,34.599243,Maseno,Kisumu,Siriba Rd
618144,East of Maseno University,120000,-0.002462,34.607853,Maseno,Kisumu,Love St
618145,Kisumu Polytechnic,320000,-0.102172,34.772468,Kisumu,Kisumu,Kisumu-Busia Road
618146,Maseno,90000,0.036552,34.569357,Kisumu,Kisumu,Luanda - Siaya Rd
618147,Wagai,150000,0.052547,34.437875,Kisumu,Kisumu,Kodiaga - Wagai - Aluor Rd
618148,Siaya,166000,0.060433,34.286033,Siaya,Siaya,Unnamed Road
618149,Luanda,100000,0.086157,34.567855,Yala,Siaya,Buyangu - Ekero Rd
618150,Mutumbu,155133,0.117633,34.443185,Mutumbu,Siaya,Kisumu - Busia Rd
618151,Samia Hill,168782,0.293857,34.13788,Samia,Busia,Unnamed Road
618152,Busia,160811,0.460982,34.107605,Busia,Busia,Kisumu - Busia Rd
618153,Butula Kalalani,311839,0.330405,34.356627,Butula,Busia,Off Koyonzo-Bumala Road
618154,Mumias,204311,0.338939,34.494028,Mumias,Kakamega,Mumias - Bungoma Rd
618155,Sabatia Lunza,100000,0.235363,34.555333,Kisumu,Kisumu,D260
618156,Shianda-After,120000,0.311082,34.626569,Kisumu,Kisumu,Unnamed Road
618157,Kakamega,259105,0.279305,34.75266,Kakamega,Kakamega,Kisumu - Kakamega Rd
618158,Kiboswa,130000,-0.025978,34.744075,Kiboswa,Kisumu,Off Kisumu - Vihiga Road
618159,Maragoli forest,262500,0.006041,34.683556,Maragoli,Vihiga,Unnamed Road
618160,Lunganyiro,110000,0.42882,34.398273,Koyongo,Busia,Busia-Mumias Rd
618161,Shikusa,180000,0.336007,34.814359,Kakamega,Kakamega,Malava-Kakamega Road
618162,KSM Mambolelo,450000,-0.064245,34.774993,Kisumu,Kisumu,Kisumu - Vihiga Rd
618163,Butere,224749,0.214002,34.497412,Butere,Kakamega,Unnamed Road
618164,Nyanchwa HILL,222831,-0.6805,34.752002,Nyanchwa,Kisii,Unnamed Road
618165,Tombe,278961,-0.655887,34.876323,Kisii,Nyamira,Kemera-Magombo Road
618166,Nyamira,100000,-0.556782,34.92685,Nyamira,Nyamira,Kisii - Kilgoris Rd
618167,Sameta Hills,80000,-0.781522,34.756771,Sameta,Kisii,Unnamed Road
618169,Kisii_Road,150000,-0.677482,34.802432,Kisii,Kisii,Unnamed Road
618170,Kibiringo,170000,-0.601642,34.956915,Kisumu,Kisumu,C21
618171,Cheromit,150000,-0.446425,35.206033,Kisumu,Kisumu,Kapsuser - Chemosit Rd
618172,Gembe Hill,166000,-0.500267,34.216378,Gembe,Homa Bay,Unnamed Road
618173,Nyambunwa,90000,-0.788914,34.94418,Nyambunwa,Kisii,Keroka - Masimba Rd
618174,Kamagambo,150000,-0.726498,34.637216,Rongo,Migori,Rongo - Kisii Rd
618175,Homabay show,207892,-0.541062,34.454048,Homa Bay,Homa Bay,Homa Bay - Rongo Rd
618176,Onapo,170000,-0.699089,34.548233,Rongo,Migori,Kisii - Kilgoris Rd
618177,Mosocho,332629,-0.596125,34.744828,Kisii,Kisii,Off Kisii - Kisumu Rd
618178,Doho kosele,191442,-0.431664,34.690503,Kisumu,Kisumu,C26
618179,Oyugis,311839,-0.513413,34.730715,Oyugis,Homa Bay,Off Kisii - Kisumu Rd
618180,Kindu bay,261352,-0.369685,34.64808,Kendu Bay,Kisumu,Kendu Bay-Homa Bay Road
618181,Ruga,196012,-0.54893,34.737333,Oyugis,Homa Bay,Kisii - Kisumu Rd
618182,Migori - Exchange,166000,-1.047928,34.46745,Migori,Migori,Unnamed Road
618183,Ranen Highway,150000,-0.85879,34.565408,Awendo,Migori,Dede To Ranen Rd
618184,Rongo,326700,-0.761505,34.607607,Rongo,Migori,Rongo-Riosiri Road
618185,Sondu,162889,-0.385615,35.00331,Kisumu,Kisumu,Kisii - Kisumu Rd
618186,Kadongo,191444,-0.445835,34.890277,Sondu,Homa Bay,Kisii - Kisumu Rd
618187,Ober,262500,-0.486067,34.810863,Oyugis,Kisumu,Kisii - Kisumu Rd
618188,Kisii Gesonso,353418,-0.661455,34.743998,Kisii,Kisii,Kisii - Rongo Rd
618189,Nyangusu,120000,-0.916753,34.832948,Nyangusu,Kisii,Unnamed Road
618190,Nyacheki,177295,-0.898523,34.86454,Kisii,Kisii,Nyangusu-Nyacheki-Masimba-Keroka Road
618191,Nyamasimba,120000,-0.823793,34.946033,Kisii,Kisii,Unnamed Road
618192,United mall,441000,-0.098308,34.762738,Kisumu,Kisumu,Ramogi Rd
618193,Nakumatt,464345,-0.106938,34.77,Kisumu,Kisumu,Ondiek Hwy
618194,Maseno CDMA,100000,-0.013573,34.609867,Maseno,Kisumu,Maseno - Kombewa Rd
618195,Ahero,166000,-0.174365,34.920188,Kisumu,Kisumu,Thousand St
618196,Homa Bay UXD,166000,-0.530257,34.457392,Homa Bay,Homa Bay,Unnamed Road
618197,Lamu,229036,-2.27625,40.904663,Lamu,Lamu,C112
618198,Faza,189108,-2.054912,41.112734,Faza,Lamu,Unnamed Road
618199,Lamu CBD,300000,-2.269205,40.900583,Lamu,Lamu,C112
618200,Milhoi,166000,-2.204902,40.707845,Milhoi,Lamu,C112
618201,Witu,166000,-2.38558,40.443597,Witu,Lamu,C112
618202,Hindi,120000,-2.177332,40.815277,Hindi,Lamu,C112
618203,Lokichogio centre,140000,4.205748,34.36546,Lokichogio,Turkana,Lopiding Rd
618204,Machakos,100000,-1.51815,37.267358,Machakos,Machakos,90100 Mbolu Malu Rd
618205,Machakos Eastliegh,100000,-1.536447,37.265024,Machakos,Machakos,Machakos Wote Rd
618206,Machakos Mutituni,374207,-1.50698,37.265315,Machakos,Machakos,Machakos-Kangundo Rd
618207,Kikambuani,166000,-1.271292,37.37351,Kangundo,Machakos,Kikambuani Rd
618208,Katangi- CDMA,100000,-1.404437,37.685238,Machakos,Machakos,Kibwezi - Kitui Rd
618209,Kitui TKL Exchange,166000,-1.367447,38.01254,Kitui,Kitui,Kibwezi - Kitui Rd
618211,Mwanashungi,100000,-3.258604,40.118436,Malindi,Kilifi,Jamhuri St
618212,Muyeye,150000,-3.238884,40.117188,Malindi,Kilifi,80200 Casuarina Rd
618214,Malindi TKL hse,301176,-3.213778,40.118032,Malindi,Kilifi,Ronald Ngala Rd
618215,Kisumu Ndogo (Malindi) port),210000,-3.222638,40.108957,Malindi,Kilifi,B8
618216,Kibokoni,200000,-3.168034,40.109474,Malindi,Kilifi,Jamhuri St
618217,Tropical Village,485450,-3.237432,40.126247,Malindi,Kilifi,Unnamed Road
618218,White Elephant,400000,-3.247288,40.122887,Malindi,Kilifi,Jamhuri St
618220,Garsen,166000,-2.270452,40.110395,Garsen,Tana River,Unnamed Road
618221,Msumarini,166000,-2.79754,40.14768,Msumarini,Kilifi,B8
618222,Mambrui Radio Station,301176,-3.119293,40.145082,Mambrui,Kilifi,B8
618223,Karengethe,166000,-2.485504,40.118254,Karengethe,Kilifi,Garsen road
618224,Meru Exchange,282666,0.048622,37.650625,Meru,Meru,Meru - Nairobi Hwy
618225,Meru Timber,240000,0.056723,37.640592,Meru,Meru,Meru - Nairobi Hwy
618226,Gatimbine,185000,0.039703,37.649283,Gatimbine,Meru,Unnamed Road
618227,Nkubu,166000,-0.06577,37.66271,Nkubu,Meru,Meru - Nairobi Hwy
618228,Kionyo,166000,-0.119615,37.59837,Kionyo,Meru,Unnamed Road
618229,Chuka,166000,-0.33306,37.645988,Chuka,Tharaka-Nithi,Meru - Nairobi Hwy
618230,Isiolo,282666,0.35539,37.586068,Isiolo,Isiolo,A2
618231,Nyambene,282666,0.23367,37.875953,Nyambene,Meru,Kirore Rd
618232,Laare,225000,0.336874,37.934721,Laare,Meru,Unnamed Road
618233,Nkuene,150000,-0.07477,37.613692,Meru,Meru,Unnamed Road
618234,Maua TKL,233113,0.226878,37.940856,Maua,Meru,Murram Road
618235,Shika Adabu Likoni,180000,-4.110232,39.642667,Mombasa,Mombasa,Mombasa Road
618236,Likoni,295772,-4.083929,39.659601,Likoni,Mombasa,Likoni-Ukunda Rd
618237,Baraki,500000,-4.072965,39.665537,Mombasa,Mombasa,Unnamed Road
618238,Ganjoni,598615,-4.063853,39.657068,Mombasa,Mombasa,Majengo Rd
618239,MSA TKL House,434975,-4.062517,39.670385,Mombasa,Mombasa,Moi Ave
618240,KPA mombasa,500000,-4.04975,39.651258,Mombasa,Mombasa,Mombasa
618241,Majengo,360000,-4.050463,39.662277,Mombasa,Mombasa,Majengo Rd
618242,KIDUNGUNI-MT. SINAI,200000,-4.091992,39.649772,Mombasa,Mombasa,Likoni-Ukunda Rd
618243,Tudor,200000,-4.039643,39.656553,Mombasa,Mombasa,Unnamed Road
618244,Kongowea Market,300000,-4.037717,39.685392,Mombasa,Mombasa,Nyali Rd
618245,Nyali Link farm,390000,-4.039353,39.697421,Mombasa,Mombasa,Makongeni Rd
618246,Changamwe SDA,326276,-4.028058,39.6354,Mombasa,Mombasa,Mombasa Road
618247,Mshomoroni Kisauni,1178974,-4.027732,39.678187,Mombasa,Mombasa,Kengelani Rd
618248,V.O.K Kisauni,945000,-4.028029,39.690404,Mombasa,Mombasa,Nyali Rd
618249,Miritini Vikombani,513102,-4.01495,39.590692,Miritini Vikombani,Mombasa,Unnamed Road
618250,Mbungoni Kisauni,410000,-4.016722,39.696027,Mombasa,Mombasa,Bakarani Rd
618252,Bamburi Utange,513102,-3.991365,39.710403,Mombasa,Mombasa,B8
618253,Bamburi,500560,-3.985852,39.736817,Bamburi,Mombasa,Serena Rd
618254,Shimo La Tewa,391287,-3.96604,39.745933,Shimo La Tewa,Kilifi,Cement Rd
618255,Mtongwe_2,100000,-4.074907,39.637068,Mombasa,Mombasa,Unnamed Road
618256,OLD Mombasa town,900000,-4.060258,39.678127,Mombasa,Mombasa,B8
618257,Old Mombasa Town 2,800000,-4.056247,39.674387,Mombasa,Mombasa,"Mlango wa Papa Road, Mombasa"
618258,Madaraka,950000,-4.049867,39.671518,Mombasa,Mombasa,Kisauni Rd
618259,Mnazini,300000,-4.062547,39.663747,Mombasa,Mombasa,Malindi Rd
618260,Swami,250000,-4.056177,39.659708,Mombasa,Mombasa,Ronald Ngala Rd
618261,Mombasa Jomo Kenyatta,200000,-4.055035,39.669375,Mombasa,Mombasa,Ronald Ngala Rd
618262,Lumumba,300000,-4.046738,39.657417,Mombasa,Mombasa,Duruma
618263,Shimanzi,422130,-4.045733,39.649568,Mombasa,Mombasa,Mwinyi Mpate St
618264,Mombasa stadium,250000,-4.045607,39.66563,Mombasa,Mombasa,Ronald Ngala Rd
618265,Mombasa Tudor,422130,-4.034505,39.663097,Mombasa,Mombasa,Ronald Ngala Rd
618266,Mombasa magongo 1,200000,-4.02735,39.618655,Mombasa,Mombasa,80100 Nyerere Ave
618267,Mombasa magongo 2,300000,-4.017713,39.630055,Mombasa,Mombasa,Unnamed Road
618268,Jomvi,488668,-4.005822,39.59967,Mombasa,Mombasa,Mombasa Road
618270,Nakumatt Nyali 2 RT Building,250000,-4.023217,39.70656,Mombasa,Mombasa,Nyali Rd
618271,Mwandoni bamburi,160000,-4.004958,39.689178,Mombasa,Mombasa,Unnamed Road
618272,Mbaraki,200000,-4.071672,39.672965,Mombasa,Mombasa,Ronald Ngala Rd
618273,Kizingo white wall,300000,-4.069132,39.676237,Mombasa,Mombasa,Ronald Ngala Rd
618274,Pirates Beach,300000,-4.004887,39.726382,Mombasa,Mombasa,80100 Links Rd
618275,Nakumat Nyali Cinemax,441000,-4.049485,39.685508,Mombasa,Mombasa,Nyali Rd
618276,West Changamwe,360000,-4.021,39.617805,Mombasa,Mombasa,Magongo Rd
618277,Makupa,353348,-4.047213,39.663218,Makupa,Mombasa,Malindi Rd
618278,Shimba Hills,166000,-4.366595,39.413973,Shimba,Kwale,C108
618279,Mtwapa GSM,250000,-3.947838,39.746815,Mombasa,Mombasa,Bofa Rd
618280,Kikambala TKLexch,215386,-3.889558,39.774893,Kikambala,Kilifi,B8
618281,Kilifi TKLexch,391287,-3.633593,39.851827,Kilifi,Kilifi,Bofa Rd
618282,Tezo,262000,-3.54045,39.877758,Kilifi,Kilifi,Mombasa-Malindi Road
618283,Uyombo,190288,-3.396404,39.958782,Uyombo,Kilifi,Unnamed Road
618284,Gede junction,120000,-3.301057,40.011992,Mombasa,Mombasa,Ocean Sport Road
618285,Hemingways Resort,350000,-3.361257,40.006533,Watamu,Kilifi,B8
618286,Kokotoni,300000,-3.918133,39.527252,Mombasa,Mombasa,Mombasa Road
618287,Kenani,625702,-2.78398,38.28108,Kenani,Makueni,Mombasa Road
618288,Manyani,517109,-3.082023,38.492512,Manyani,Taita-Taveta,C103
618289,Ndi Tsavo,625702,-3.239402,38.500778,Tsavo,Taita-Taveta,Mombasa Road
618290,Voi hill,319460,-3.372637,38.564254,Voi,Taita-Taveta,Mombasa Road
618291,Maungu (CDMA),319460,-3.560432,38.749243,Maungu,Taita-Taveta,Unnamed Road
618293,Taru,498529,-3.77443,39.120285,Taru,Kwale,Unnamed Road
618294,Samburu,498529,-3.796178,39.262405,Samburu,Samburu,Green Hills Academy Rd
618295,Mazeras (CDMA),409953,-3.96889,39.556818,Mazeras,Kilifi,Unnamed Road
618296,Manyani Rd,517109,-3.153828,38.496673,Mombasa,Mombasa,Mombasa Road
618297,Nyali Exchange,386952,-4.045117,39.697988,Nyali,Mombasa,Cnr Links and Impala Rd
618298,Mwatate/Chawia,166000,-3.49003,38.34597,Mwatate,Taita-Taveta,Unnamed Road
618299,Kidong,195467,-3.363358,37.73216,Taveta,Taita-Taveta,Unnamed Road
618300,Taveta_TKL,160811,-3.395898,37.675845,Taveta,Taita-Taveta,Unnamed Road
618301,Sarova Whitesands Hotel,250000,-3.991821,39.734569,Mombasa,Mombasa,B8
618302,Mbuni Road,814447,-4.045199,39.701906,Mombasa,Mombasa,Mbuni Rd
618304,Chumvini,331000,-3.209837,37.711485,Taita-Taveta,Taita-Taveta,C19
618305,Ngong Exchange,201501,-1.364452,36.657492,Nairobi,Nairobi,Church Road
618306,Kikuyu,233408,-1.244732,36.663105,Kikuyu,Kiambu,Kikuyu - Nderi Road
618307,Karen Rhino park,444324,-1.311498,36.684935,Nairobi,Nairobi,Three-D Ln
618308,Muthiga,236250,-1.26492,36.68433,Kikuyu,Kiambu,Salim Rd
618309,Kahuho,150000,-1.21442,36.685832,Nairobi,Nairobi,Unnamed Road
618310,Kiserian,300000,-1.432198,36.685265,Nairobi,Nairobi,c58 Magadi Rd
618311,Karen Accacia,450000,-1.33705,36.699937,Nairobi,Nairobi,17 Acacia Ave
618312,Kirigu Waithaka,150000,-1.286765,36.699152,Nairobi,Nairobi,Kikuyu Rd
618313,Karen Miotoni,871170,-1.311888,36.703043,Nairobi,Nairobi,Warai S Road
618314,Nkoroi,280000,-1.409435,36.712885,Nairobi,Nairobi,Magadi Rd
618315,Kabiria,157500,-1.287653,36.726755,Nairobi,Nairobi,Salim Rd
618316,Lower Kabete,356000,-1.240585,36.727805,Nairobi,Nairobi,Lower Kabete
618317,Karura,210000,-1.191075,36.726907,Nairobi,Nairobi,Karura Munyaka Road
618318,Riruta,200000,-1.30592,36.73845,Nairobi,Nairobi,Ngong Rd
618319,Kangemi,315000,-1.264077,36.739852,Nairobi,Nairobi,Waiyaki Way
618320,Gathiga,315000,-1.21435,36.74097,Nairobi,Nairobi,Unnamed Road
618321,Langata,700000,-1.354925,36.742652,Nairobi,Nairobi,Tandala Rd
618322,Karuri,224204,-1.176553,36.751213,Nairobi,Nairobi,Gitaru Rd
618323,Ngong_Sport_Club,700000,-1.30383,36.752522,Nairobi,Nairobi,Ngong Rd
618324,Ongata_Rongai,369885,-1.396593,36.7528,Nairobi,Nairobi,2 Magadi Rd
618325,Kawangware,315000,-1.287887,36.754677,Nairobi,Nairobi,330 Gitanga Rd
618326,Rowallan camp,432000,-1.319457,36.773992,Nairobi,Nairobi,Mbagathi Way
618327,Lavington,300000,-1.263013,36.765688,Nairobi,Nairobi,5 Waiyaki Way
618328,Gachie,239699,-1.215558,36.768783,Nairobi,Nairobi,Gachie Academy Cir
618329,Muthangari,700000,-1.27545,36.772777,Nairobi,Nairobi,James Gichuru Road
618330,Jamhuri,700000,-1.30114,36.77377,Nairobi,Nairobi,Joseph Kangethe Rd
618331,Kilimani Galana,367500,-1.287805,36.780486,Nairobi,Nairobi,Forest Edge View
618332,Peponi Rd,500000,-1.236803,36.781648,Nairobi,Nairobi,Peponi Rd
618333,Mucatha,465360,-1.191423,36.781963,Nairobi,Nairobi,Guango Road.
618334,Karen Hospital,400000,-1.335998,36.726125,Nairobi,Nairobi,Langata Rd
618335,Westlands Exch,700000,-1.263338,36.796828,Nairobi,Nairobi,205 David Osieli Rd
618336,Kibera Malezi Sch,1155900,-1.32119,36.78961,Nairobi,Nairobi,Southern Bypass
618338,Reliance Centre,1426560,-1.262793,36.803582,Nairobi,Nairobi,15 Woodvale Grove
618339,KTTC Gigiri,855170,-1.238742,36.811355,Nairobi,Nairobi,Limuru Rd
618341,Parklands_Exchange,522854,-1.26579,36.813168,Nairobi,Nairobi,45 Parklands Rd
618342,Nairobi_West,424628,-1.31418,36.815863,Nairobi,Nairobi,Langata Rd
618343,South_Hill,700000,-1.301789,36.819291,Nairobi,Nairobi,Second Ngong Ave
618344,South B,407224,-1.311887,36.837578,Nairobi,Nairobi,Kapiti Cres
618345,Parklands,908306,-1.261322,36.821667,Nairobi,Nairobi,Third Parklands Avenue
618346,Runda,150000,-1.215787,36.82398,Nairobi,Nairobi,Northern Bypass Rd
618348,Ngara,408000,-1.276725,36.82784,Nairobi,Nairobi,Irungu Riika Rd
618349,Muthurwa,524505,-1.28717,36.8377,Nairobi,Nairobi,Park Rd
618350,Major_Works,700000,-1.305388,36.837316,Nairobi,Nairobi,53 Dar Es Salaam Rd
618351,Eastleigh_THse,445492,-1.269265,36.85008,Nairobi,Nairobi,Eastleigh Second Ave
618352,Mogandishu rd,1247357,-1.313592,36.851965,Nairobi,Nairobi,Enterprise Rd
618353,Highway Exchange,700000,-1.322366,36.865714,Nairobi,Nairobi,Rd B
618354,Kimathi Estate,350000,-1.287685,36.867127,Nairobi,Nairobi,Busamia Cl
618355,Thome Muthaiga north,593979,-1.23646,36.866668,Nairobi,Nairobi,"Riverside Drive, Muthaiga North"
618356,Kariobangi,700000,-1.277027,36.87812,Kariobangi,Nairobi,Mumias S Rd
618357,Embakasi mukuru,513102,-1.314352,36.881073,Nairobi,Nairobi,Unnamed Road
618358,Kariobangi South,479144,-1.263637,36.881427,Nairobi,Nairobi,Off Outer Ring Rd
618359,Mugomo,200000,-1.167268,36.88017,Nairobi,Nairobi,Kamiti Rd
618360,Steel Makers,700000,-1.335042,36.893603,Nairobi,Nairobi,Mombasa Road
618361,Tena Estate,250000,-1.288347,36.895703,Nairobi,Nairobi,Mother Teresa Court
618362,Lucky Summer,200000,-1.239187,36.89317,Nairobi,Nairobi,Unnamed Road
618363,Kiamumbi,430000,-1.191063,36.895267,Nairobi,Nairobi,Kamiti Rd
618364,Embakasi,572512,-1.318015,36.904317,Embakasi,Nairobi,Airport N Rd
618365,Komarock Infill,1027122,-1.265045,36.90799,Nairobi,Nairobi,Kangaru Rd
618366,Kasarani Clayworks,2160000,-1.215253,36.908083,Nairobi,Nairobi,"Seasons Road, Kasarani"
618367,Dandora,425250,-1.238255,36.922272,Nairobi,Nairobi,Unnamed Road
618368,Kahawa barracks,279063,-1.18477,36.925338,Nairobi,Nairobi,post office walk
618369,Syokimau,1650000,-1.36057,36.9348,Nairobi,Nairobi,Kiungani Rd
618370,Githurai langata,200000,-1.215572,36.93605,Thika,Kiambu,Unnamed Road
618371,Ruiru membley,467250,-1.166658,36.936102,Nairobi,Nairobi,Kilimanjaro St
618372,Njiru,390000,-1.249685,36.94253,Kiambu,Kiambu,Kangundo Rd
618373,Kahawa Sukari,220000,-1.19352,36.950522,Nairobi,Nairobi,Kahawa Sukari Ave
618374,Ruiru,326700,-1.147783,36.960208,Ruiru,Kiambu,C65
618375,Mavoko,231525,-1.409612,36.964182,Nairobi,Nairobi,Unnamed Road
618376,Athi_River,333080,-1.451927,36.980416,Athi_River,Machakos,KMC Rd
618377,TKL Ruai Club,351908,-1.271325,36.990012,Nairobi,Nairobi,Unnamed Road
618378,Kayole phase 1,300000,-1.265505,36.920275,Nairobi,Nairobi,Off Kayole Spine Rd
618379,Mowlem,300000,-1.270344,36.893145,Nairobi,Nairobi,Unnamed Road
618380,Ngong hills,201501,-1.390138,36.637983,Ngong hills,Nairobi,Unnamed Road
618381,Umoja innercore,300000,-1.279917,36.892148,Nairobi,Nairobi,Unnamed Road
618382,Karen Exchange,700000,-1.320342,36.705185,Karen,Nairobi,Church Road
618383,Buru Buru Phase 3,300000,-1.290797,36.880213,Nairobi,Nairobi,Buchuma Road
618384,Tassia Estate,300000,-1.30794,36.897988,Nairobi,Nairobi,Standard Drive
618385,Landmark Plaza,750000,-1.294703,36.805167,Nairobi,Nairobi,Argwings Kodhek Rd
618386,St.Ellis House,775664,-1.286255,36.82315,Nairobi,Nairobi,Wabera Ln
618387,Loita house,600000,-1.283552,36.817963,Nairobi,Nairobi,Maua Close
618388,Hirani Building,240000,-1.28202,36.828072,Nairobi,Nairobi,Cross Lane
618389,Rura Urban Credit Finance,240000,-1.284552,36.82632,Nairobi,Nairobi,Gaborone Rd
618390,Ukulima Co-op Hse,400000,-1.292242,36.820812,Nairobi,Nairobi,Uhuru Hwy
618391,RELI CO-OP HSE,240000,-1.28751,36.828548,Nairobi,Nairobi,Maua Close
618392,Pangani Bujumbura Rd,842000,-1.266277,36.839675,Nairobi,Nairobi,Klarie Hihu Rd
618393,Panari,402028,-1.331952,36.85706,Nairobi,Nairobi,Mombasa Road
618394,Yaya Center,480000,-1.293237,36.78774,Nairobi,Nairobi,Ring Rd Kilimani
618395,KIRONGOTHI STREET,400000,-1.275013,36.845877,Nairobi,Nairobi,Muratina St
618396,Huruma,445000,-1.255743,36.87436,Nairobi,Nairobi,Huruma Rd
618397,BRUNEI HSE,300000,-1.305568,36.827565,Nairobi,Nairobi,Witu Rd
618398,Kayole Phase III,200000,-1.272338,36.91227,Nairobi,Nairobi,Kwa D. O Road
618400,Lungalunga,432699,-1.30819,36.864899,Lungalunga,Nairobi,45 Lunga Lunga Rd
618402,Paramount Plaza,570110,-1.277212,36.821112,Nairobi,Nairobi,49 Kipande Rd
618403,Church Rd,430000,-1.2633,36.789173,Nairobi,Nairobi,71 Church Rd
618404,ABC Place,400000,-1.259365,36.773898,Nairobi,Nairobi,Waiyaki Way
618405,Plainsview,293201,-1.318825,36.842973,Nairobi,Nairobi,Kilifi Close
618406,Kayole Juakali,320000,-1.256882,36.923707,Nairobi,Nairobi,Kangundo Road
618407,Carnivore,340000,-1.322672,36.80097,Nairobi,Nairobi,Langata Rd
618408,Spring valley,400000,-1.246017,36.79209,Nairobi,Nairobi,Boundary Lane
618409,NHIF Building,500000,-1.294567,36.812848,Nairobi,Nairobi,Uhuru Hwy
618410,Limuru Town,430000,-1.111695,36.63912,Nairobi,Kiambu,Kahahu Road
618411,Nyari Estate,684135,-1.22512,36.786105,Nairobi,Nairobi,Red Hill Rd
618412,Likoni Rd,620531,-1.29433,36.854652,Nairobi,Nairobi,Jogoo Rd
618413,Nairobi TKL hse,316032,-1.287048,36.81886,Nairobi,Nairobi,34537 Valley Rd
618414,CFC - Building,280000,-1.286593,36.813367,Nairobi,Nairobi,Mamlaka Rd
618415,Riara Road,775664,-1.297112,36.761655,Nairobi,Nairobi,523 Riara Rd
618416,Pumwani,300000,-1.286409,36.855472,Nairobi,Nairobi,Eighteenth St
618418,KICC Macro,600000,-1.2888,36.823098,Nairobi,Nairobi,Harambee Avenue
618419,Hughes House,400000,-1.284535,36.82061,Nairobi,Nairobi,Muindi Mbingu St
618420,Nakumatt lifestyle,600000,-1.282737,36.820198,Nairobi,Nairobi,28 Tubman Rd
618421,Keiyo road,294000,-1.271473,36.818692,Nairobi,Nairobi,Gala Ln
618422,Mwihoko GF,230000,-1.21022,36.965307,Nairobi,Nairobi,Unnamed Road
618423,kahawa Wendani,170000,-1.201692,36.927757,Nairobi,Nairobi,123 Kamiti Rd
618424,Zimmerman,250000,-1.208832,36.894038,Nairobi,Nairobi,123 Kamiti Rd
618425,Lenana Rd,400000,-1.290872,36.792638,Nairobi,Nairobi,"Kasuku Road, Lenana"
618426,Githunguri CDMA,342068,-1.055612,36.781545,Githunguri,Kiambu,C103
618427,TKL Pemba Road,432773,-1.294837,36.839308,Nairobi,Nairobi,Lusaka Rd
618428,Nazarene University,250000,-1.401662,36.788353,Ongata,Nairobi,Unnamed Road
618429,Savanna,350000,-1.301626,36.89238,Thika,Kiambu,Outer Ring Rd
618430,Sunrays,550000,-1.28098,36.822892,Nairobi,Nairobi,Tom Mboya St
618431,Kamukunji Trade Center,250000,-1.28471,36.834063,Nairobi,Nairobi,Pumwani Rd
618432,Kahawa west,220000,-1.181787,36.904352,Ruaraka,Nairobi,Bima Rd
618433,Mukoma road,300000,-1.372273,36.767267,Nairobi,Nairobi,Mukoma Rd
618434,Lusiget,216000,-1.276642,36.608822,Nairobi,Nairobi,Dagoretti Rd
618435,Kinoo,200000,-1.253548,36.69082,Nairobi,Nairobi,A104
618436,Gitaru,250000,-1.230508,36.681265,Kiambu,Kiambu,Gitaru Rd
618437,Thigio,170000,-1.202215,36.596838,Nairobi,Nairobi,Gitutha Gicagi Rd
618438,Kabuku,180000,-1.152315,36.668203,Limuru,Kiambu,NGECHA - KABUKU Rd
618439,Kiambu North,180000,-1.161958,36.840318,Kiambu,Kiambu,Unnamed Road
618440,Kanunga,150000,-1.165118,36.788762,Kiambu,Kiambu,Church Rd
618441,Kawaida,190000,-1.142168,36.753733,Kiambu,Kiambu,Unnamed Road
618442,Tinganga,160000,-1.127805,36.812647,Nairobi,Nairobi,Gititu Rd
618443,Ikinu,250000,-1.10129,36.7974,Kiambu,Kiambu,Outer Ring Rd
618444,Eden Square,738728,-1.26878,36.80617,Nairobi,Nairobi,33 Westlands Rd
618445,Ngumo,260000,-1.306803,36.802055,Nairobi,Nairobi,Gitaru Rd
618446,Dandora Phase 1,250000,-1.257748,36.891403,Nairobi,Nairobi,John Osogo Rd
618447,Andrews Apartments,400000,-1.264342,36.78111,Nairobi,Nairobi,69 Rhapta Road
618448,Gigiri Exchange,700000,-1.232265,36.800042,Gigiri,Nairobi,Posta Ln
618449,Loresho South,300000,-1.255608,36.75166,Nairobi,Nairobi,Kaptagat Rd
618450,Industrial Area - RT Building,570000,-1.300855,36.846187,Nairobi,Nairobi,City Stadium Rd
618451,Ngong View,379260,-1.327275,36.686985,Nairobi,Nairobi,Oloolua Close
618452,Karen mother land,400000,-1.322272,36.717523,Nairobi,Nairobi,Karen Rd
618453,Near Hillcrest Road,400000,-1.334848,36.742397,Nairobi,Nairobi,Langata Rd
618454,Magadi Road,250000,-1.355973,36.760097,Nairobi,Nairobi,Mai Mahiu Rd
618455,Siaya Road,1037099,-1.278835,36.784455,Nairobi,Nairobi,Gatundu Rd
618456,Umoja Phase 2 Plot No J185,250000,-1.279675,36.883238,Nairobi,Nairobi,Outer Ring Rd
618457,Nanyuki Road,488668,-1.305889,36.87593,Nairobi,Nairobi,Nanyuki Rd
618458,Donholm Road,250000,-1.290067,36.903517,Nairobi,Nairobi,Savannah Rd
618459,Muteero Drop,250000,-1.321615,36.680998,Karen,Nairobi,Kerarapon Drive
618460,British American Insurance,604779,-1.29786,36.813642,Nairobi,Nairobi,Mara Rd
618462,Karen Warai Road,400000,-1.306623,36.706855,Nairobi,Nairobi,Warai Rd
618463,Magadi Road Greenfield,300000,-1.395321,36.745958,Ongata,Nairobi,2 Magadi Rd
618465,Homestead Hosting Tower,350000,-1.373292,36.737892,Nairobi,Nairobi,148 Koitobos Rd
618468,Muringa Road,500000,-1.295978,36.77906,Nairobi,Nairobi,Muringa Rd
618470,Pumwani Road,350000,-1.279442,36.849772,Nairobi,Nairobi,Forest Road.
618471,K. Manyimbu,350000,-1.270787,36.8419,Nairobi,Nairobi,General Waruingi St
618472,Mandera OAD,900000,-1.277022,36.788728,Nairobi,Nairobi,A2
618473,Iran Embassy,350000,-1.284373,36.789952,Nairobi,Nairobi,Mombasa Road
618475,Haridge INN,590983,-1.307867,36.822598,Nairobi,Nairobi,Langata Rd
618476,Kiddyvilla Kindergaten,500000,-1.283185,36.766123,Nairobi,Nairobi,97 James Gichuru Road
618477,Umoja 1N,280000,-1.28737,36.88624,Nairobi,Nairobi,Matolani Lane
618478,Riverside KR,500000,-1.270203,36.799173,Nairobi,Nairobi,44 Riverside Dr
618479,Brookside Drive,500000,-1.257082,36.78724,Nairobi,Nairobi,Brookside Dr
618482,Busia Road,410000,-1.310237,36.845025,Nairobi,Nairobi,Kabue Ln
618483,KWS Nairobi National Park,682051,-1.336915,36.780227,Nairobi,Nairobi,Road
618484,weights and measures gf,400000,-1.32218,36.832078,Nairobi,Nairobi,Popo Rd
618485,Niamey Lane,619000,-1.30888,36.825678,Nairobi,Nairobi,Gatonye Court
618486,Sunrise Estate 2,240000,-1.29475,36.89116,Nairobi,Nairobi,Neema Ct
618487,KMTC,400000,-1.303123,36.80465,Nairobi,Nairobi,Mbagathi Rd
618488,Marak Limited,635268,-1.302292,36.828435,Nairobi,Nairobi,Shimo la Tewa Rd
618489,Theke,166000,-1.564119,37.162902,Theke,Machakos,Makutano - Kitui Rd
618490,Kiou,165000,-1.947337,37.324672,Nairobi,Nairobi,Mombasa Road
618491,Kinyunyini,333080,-1.806505,37.329188,Kinyunyini,Makueni,Mombasa Road
618492,Simba,150000,-2.157037,37.588317,Emali,Makueni,Mombasa Road
618493,Mbui Nzau,356527,-2.376723,37.908935,Mbui Nzau,Makueni,Kenya
618494,Kibwezi,356527,-2.409427,37.968398,Kibwezi,Makueni,Kibwezi - Kitui Rd
618495,Kambu,356527,-2.595945,38.077052,Kambu,Makueni,Unnamed Road
618496,Nthawe,356527,-2.668785,38.137177,Nthawe,Makueni,Unnamed Road
618497,Mtito Andei,517109,-2.736883,38.224342,Nairobi,Nairobi,Mombasa Road
618498,Diamond Estate GF,350000,-1.320432,36.850522,Nairobi,Nairobi,Likoni Rd
618499,Fedha Godowns,300000,-1.314878,36.896015,Nairobi,Nairobi,Heron Crescent
618500,Sultan Hamud,356527,-2.017435,37.37621,Nairobi,Nairobi,Mombasa Road
618501,Mtito Andei EXCH,356527,-2.689163,38.164982,Nairobi,Nairobi,Sokoni Rd
618502,Magadi Radio,190000,-1.922747,36.285985,Nairobi,Nairobi,Unnamed Road
618503,Kayole5,280000,-1.263615,36.929795,Nairobi,Nairobi,Unnamed Road
618504,Githurai Akida Bakery,350000,-1.205638,36.91849,Nairobi,Nairobi,Mashimoni Lane
618505,Oloitoktok,356527,-2.92842,37.507572,Nairobi,Nairobi,Unnamed Road
618506,Namanga_Town,206636,-2.550905,36.796681,Namanga,Kajiado,C103
618507,Namanga Road,206636,-2.502187,36.844322,Namanga,Kajiado,Commercial St
618508,Maparasha Hill,102103,-2.182172,36.85223,Kajiado,Kajiado,Unnamed Road
618509,Makueni Hill - TKL CMDA,316032,-1.807338,37.619825,Makueni,Makueni,Wote - Makindu Rd
618510,Isinya Polytechnic,120000,-1.67986,36.848257,Kajiado,Kajiado,Nairobi - Namanga
618511,Ruiru Mahetero,200000,-1.154017,36.928725,Nairobi,Nairobi,Eastern By Pass
618512,JKUAT Kiongo Hostel,280000,-1.094705,37.0202,Kalimoni,Kiambu,Gachororo road
618513,KU Central Stores,250000,-1.17627,36.934788,Nairobi,Nairobi,Meru - Nairobi Hwy
618515,Gitithia,228783,-1.051,36.623668,Gitithia,Nairobi,A104
618516,Lari/Kijabe,150000,-0.941637,36.620738,Nairobi,Nairobi,A104
618517,Susian,168546,-0.861643,36.552685,Susian,Nairobi,A104
618518,Karangita,200000,-0.77462,36.42874,Karangita,Nakuru,Moi S Lake Rd
618519,United Nations Gigiri,765000,-1.229372,36.818708,Nairobi,Nairobi,157 Wispers Ave
618520,Windsor Golf Club,200000,-1.208117,36.850468,Nairobi,Nairobi,Kabue Ln
618521,Upper Kabete Campus Entrance,400000,-1.255032,36.725217,Nairobi,Nairobi,Loresho Ridge
618522,Cool Breeze Gardens,400000,-1.261435,36.842342,Nairobi,Nairobi,Meru - Nairobi Hwy
618523,Karen Country Club - Forest Road GF,619033,-1.341877,36.710965,Nairobi,Nairobi,Kenyatta Ave
618524,Ruaraka Exch,380559,-1.236542,36.875087,Ruaraka,Nairobi,Meru - Nairobi Hwy
618526,Jogoo kimakia,300000,-1.027313,37.067072,Thika,Kiambu,Haile Selassie Rd
618527,Otiende_GF,385000,-1.324447,36.779635,Nairobi,Nairobi,Sasumua Lane
618528,6th Street Eastleigh,250000,-1.273998,36.85107,Nairobi,Nairobi,Sixth St
618529,Kibutu 1,250000,-1.186317,36.7716,Karuri,Kiambu,Banana Raini Rd
618530,Gathanga,295000,-1.188645,36.79409,Karuri,Kiambu,407 Muhuri Rd
618531,Kwa Gathoni Mui-Muto,200000,-1.233252,36.747035,Nairobi,Nairobi,Mukunga
618532,Kangemi Hinga drive,1466005,-1.26709,36.748112,Nairobi,Nairobi,Marenga Rd
618533,Crosby Shelters,300000,-1.223452,36.663967,Kikuyu,Kiambu,Sigona Dr
618534,Oleserewa,316032,-1.723592,36.696027,Oleserewa,Kajiado,Unnamed Road
618535,Fairmile School,430000,-1.264863,36.754217,Nairobi,Nairobi,Waiyaki Way
618536,Mutomo,316032,-1.845738,38.213918,Mutomo,Kitui,Kibwezi - Kitui Rd
618537,Iremito,206636,-2.59,37.372767,Iremito,Kajiado,Unnamed Road
618538,Kencom House,800000,-1.286123,36.82526,Nairobi,Nairobi,Tom Mboya St
618539,Thomson falls,204311,0.038868,36.365328,Nyahururu,Laikipia,Sharpe Rd
618540,Nyahururu Hill,262500,0.047902,36.376897,Nyahururu,Laikipia,Nyeri-Nyahururu Rd
618541,Menengai,389862,-0.246257,36.08653,Menengai,Nakuru,Unnamed Road
618542,Bangladesh,200000,-0.286223,36.050333,Nakuru,Nakuru,Unnamed Road
618543,Nakuru TKL hse,277541,-0.285993,36.070566,Nakuru,Nakuru,Government Rd
618544,Nakuru Celtel Highway,200000,-0.284881,36.099275,Nakuru,Nakuru,Oginga Oginga Avenue
618545,Lanet,203433,-0.288053,36.152057,Lanet,Nakuru,MODERN ROAD.
618546,Stima_Line,312000,-0.30455,36.059503,Nakuru,Nakuru,"Off Baringo Road, Nakuru"
618547,Nakuru PC,217800,-0.273735,36.086253,Nakuru,Nakuru,100 Crater Ln
618548,Nakuru TC,368000,-0.269275,36.102285,Nakuru,Nakuru,Nyeri-Nyahururu Road
618549,Le rhino hotel,459461,-0.285672,36.075318,Nakuru,Nakuru,2314 Mburu Gichua Rd
618550,Nwarik Farm,326690,-0.313083,36.061562,Nakuru,Nakuru,Baringo Road
618551,Nakuru Eden,150000,-0.267793,36.030428,Viwanda,Nakuru,Nakuru - Sigor Rd
618552,Kipsigis Tugen,200000,-0.298195,36.04999,Nakuru,Nakuru,Unnamed Road
618553,Nakuru Shabab,358357,-0.293358,36.062757,Eldama Ravine,Baringo,John Momanyi Rd
618554,Ngala Flats,250000,-0.29396,36.07358,Nakuru,Nakuru,Moi Rd
618555,Kasarani Police Line,240000,-0.296295,36.069367,Nakuru,Nakuru,General Kariba St
618556,Mother Teresa Hotel,200000,-0.302645,36.067806,Nakuru,Nakuru,High St
618557,Langa Langa,220000,-0.307505,36.070885,Nakuru,Nakuru,Othaya Rd
618558,Marshalls Garage,300000,-0.288848,36.062147,Nakuru,Nakuru,Kipchoge Ave
618559,Nakuru East,180000,-0.27785,36.114078,Nakuru,Nakuru,Unnamed Road
618560,Mawanga,170000,-0.265817,36.113986,Nakuru,Nakuru,Kiti Mawanga Rd
618561,Highway,300000,-0.290579,36.112697,Nakuru,Nakuru,Old Nairobi Rd
618562,Umoja Nakuru,150000,-0.273805,36.162628,Nakuru,Nakuru,Umoja II Rd
618563,Kiamunyeki,140000,-0.278382,36.132743,Nakuru,Nakuru,Kabuba Rd
618564,Mbaruk Road,430000,-0.317586,36.14431,Nakuru,Nakuru,Old Nairobi Rd
618565,ACK Bondeni,250000,-0.293084,36.081924,Nakuru,Nakuru,Kalewa Rd
618566,Naivas1,240000,-0.286427,36.089525,Nakuru,Nakuru,Oginga Oginga Avenue
618567,Maasai Road,402029,-0.28948,36.084452,Nakuru,Nakuru,Landhies Rd
618568,Victonel Milimani,300000,-0.280354,36.086829,Nakuru,Nakuru,Unnamed Road
618569,KMTC Nakuru,300000,-0.27466,36.073147,Nakuru,Nakuru,Nakuru - Sigor Rd
618570,Shabaab Friend Church Quakers,250000,-0.299106,36.057386,Nakuru,Nakuru,John Momanyi Rd
618571,Nakuru_Rhonda,140000,-0.307223,36.052335,Nakuru,Nakuru,Unnamed Road
618572,Industrial Zone Naks,300000,-0.28047,36.053852,Nakuru,Nakuru,Nakuru - Sigor Rd
618573,PCEA Nakuru West Parish,250000,-0.291173,36.056327,Nakuru,Nakuru,Kufanya Road
618574,Pipeline,200000,-0.342753,36.147995,Nakuru,Nakuru,Unnamed Road
618575,Kabarak University,250000,-0.167958,35.963581,Nakuru,Nakuru,Bethsaida St
618576,Olorien,248424,-1.243586,34.875995,Olorien,Narok,C13
618577,Enengetia,166000,-0.685398,35.904982,Enengetia,Narok,85 C57
618578,Narok TKL hse,283753,-1.08558,35.866319,Narok,Narok,85 C57
618579,Narok Majengo,250000,-1.085575,35.877945,Nakuru,Nakuru,Unnamed Road
618580,Kenya Farmers Ass,150000,-1.074688,35.864637,Nakuru,Nakuru,C57
618581,Naivasha,188540,-0.713085,36.43058,Naivasha,Nakuru,20117 Moi Ave
618582,IIKek,350000,-0.65728,36.335388,Nakuru,Nakuru,20117 Moi Ave
618583,Eburru(TKL Site),228422,-0.635007,36.265138,Eburru,Nakuru,Moi Ave
618584,Gilgil Town,228422,-0.499765,36.323053,Gilgil Town,Nakuru,247 Gilgil - Nyahururu Rd
618585,Mbaruku,150000,-0.34487,36.174312,Nakuru,Nakuru,Old Nairobi Rd
618586,Oserian,210000,-0.832375,36.309852,Oserian,Nakuru,Moi Ave
618587,Ol Kalou,340950,-0.266152,36.379738,Ol Kalou,Nyandarua,Gilgil - Nyahururu Rd
618588,North kinangop,166000,-0.602255,36.577632,Kinangop,Nyandarua,Ndunyu Njeru Rd
618590,Salgaa,160000,-0.205657,35.8655,Nakuru,Nakuru,Unnamed Road
618591,Londiani hill,180700,-0.112152,35.72799,Londiani,Kericho,Unnamed Road
618592,Makutano,168000,-0.054468,35.640768,Nakuru,Nakuru,Eldoret - Nakuru Rd
618593,Londiani junction,230000,-0.177327,35.61956,Londiani,Kericho,Kisumu - Busia Rd
618594,Kedowa,210000,-0.232733,35.526828,Nakuru,Nakuru,Kisumu - Busia Rd
618595,Chepsir,194585,-0.274048,35.418675,Chepsir,Kericho,Unnamed Road
618596,Kericho TKL HSE,266264,-0.371078,35.282727,Kericho,Kericho,Temple Rd
618597,Sitotwet,166000,-0.308525,35.196063,Sitotwet,Kericho,Kisumu - Busia Rd
618598,Kericho Kipsitet,170000,-0.216167,35.148377,Eldoret,Uasin Gishu,Kisumu - Busia Rd
618599,Nyando_Wangaya,168559,-0.143363,35.0202,Nyando wanyaga,Kisumu,Unnamed Road
618600,Nyando Kochieng,150000,-0.152955,34.866088,Rabour,Kisumu,Okana Road
618601,Saosa,166000,-0.4161,35.3072,Saosa,Kericho,Unnamed Road
618602,Merigi,168852,-0.777278,35.401205,Merigi,Bomet,Silibwet
618603,Bosta hill,166000,-0.62708,35.390423,Bosta,Bomet,Litein - Mogogosiek Rd
618604,Eldama Ravine,174240,0.047696,35.72627,Eldama Ravine,Baringo,B53
618605,Koiwa,120000,-0.615862,35.259515,Bomet,Bomet,C57
618606,Mutarakwa Hill,120000,-0.78698,35.243647,Sotik,Bomet,Kipchamba St
618607,Kiboko Farm,100000,-0.158495,35.690948,Nakuru,Nakuru,Nairobi Rd
618608,Molo town,100000,-0.253468,35.737955,Molo,Nakuru,C56
618609,Londiani Town,160000,-0.156118,35.577087,Londiani,Kericho,Chepseon
618610,Koituiy,100000,-0.286828,35.166057,Nakuru,Nakuru,Kisumu - Busia Rd
618611,Kamureito,120000,-0.741502,35.186315,Kamureito,Bomet,Kaplong - Narok - Maai Rd
618612,Sigowet,120000,-0.410097,35.065452,Sigowet,Kericho,Sondu-Kapsoit Rd
618613,Longonot Earth Station,166000,-1.01807,36.497145,Narok,Narok,Kayole 1 Rd
618614,Mau Suswa,170000,-1.053963,36.351198,Narok,Narok,C13
618615,Naire Enkare/Olasiti,205241,-1.100653,36.220328,Nakuru,Nakuru,C13
618616,Ntulele,177295,-1.094285,36.121895,Ntulele,Narok,Kamandura - Mai Mahiu - Narok Rd
618617,Eorkule,120000,-1.10304,36.004312,Nakuru,Nakuru,Kamandura - Mai Mahiu - Narok Rd
618618,IL Mashariani,166000,-1.090835,35.914342,Mashariani,Narok,Kamandura - Mai Mahiu - Narok Rd
618619,Koitiko,120000,-1.113582,36.049458,Nakuru,Nakuru,Kamandura - Mai Mahiu - Narok Rd
618620,Bogoria,100000,-1.087698,36.289745,Nakuru,Nakuru,Kamandura - Mai Mahiu - Narok Rd
618621,Kiamaina,150000,-0.239818,36.113047,Nakuru,Nakuru,Nyeri-Nyahururu Rd
618622,Nyandundo,166000,-0.122834,36.236087,Nyandundo,Nyandarua,Unnamed Road
618623,Oldonyo Rasha,195467,-1.232503,35.774253,Oldonyo Rasha,Narok,C11
618624,Ngoswani,120000,-1.349693,35.624953,Ngoswani,Narok,C12
618625,Kaitapini,120000,-1.402228,35.468108,Narok,Narok,C12
618626,Ngama hill,171033,-1.539467,35.307475,Nakuru,Nakuru,Unnamed Road
618627,Keekorok Hotel,200000,-1.587943,35.234688,Nakuru,Nakuru,C12
618628,Lenganishu,200000,-1.597022,35.40379,Lenganishu,Narok,Unnamed Road
618629,Talek market,166000,-1.44247,35.213848,Talek,Narok,C14
618630,Mara bridge,171033,-1.574718,35.097315,Narok,Narok,E176
618631,Mara Serena Lodge,330000,-1.401978,35.024502,Nakuru,Nakuru,Settelite Road
618632,Governor Camp,100000,-1.297578,35.039843,Nakuru,Nakuru,C13
618633,Marariada,166000,-1.21459,35.05005,Marariada,Narok,Settelite Road
618634,Aerosport Nanyuki,100000,-1.173178,35.24704,Narok,Narok,Kamandura - Mai Mahiu - Narok Rd
618635,Lolgorian,162889,-1.227537,34.809338,Lolgorian,Narok,C13
618636,Mulot,205977,-0.936931,35.43077,Mulot,Narok,Kapkimolwa - Mulot Rd
618637,Laikipia university,120000,0.032789,36.264374,Laikipia,Laikipia,John Momanyi Rd
618638,Olesituo,199000,-0.86774,36.1095,Narok,Narok,
618639,Olenguruone,168852,-0.59312,35.684152,Olenguruone,Nakuru,C13
618640,Olkuruk TKL,166000,-1.27494,34.967335,Olkuruk,Narok,C13
618641,Fig mara station,166000,-1.42451,35.195562,Talek,Narok,
618642,Naivasha Flower farm,140000,-0.724878,36.436152,Naivasha,Nakuru,20117 Moi Ave
618643,Naivasha Military,135000,-0.714516,36.439897,Naivasha,Nakuru,Off Nairobi-Nakuru Road
618644,Kedong Ranch,240000,-0.81624,36.39551,Naivasha,Nakuru,Biashara Rd
618645,Skuta Trading Centre,220000,-0.432968,36.96912,Nyeri,Nyeri,Unnamed Road
618646,Nyeri Exchange,254019,-0.421658,36.948509,Nyeri,Nyeri,255 Chania Bridge
618647,Paresia,180000,-0.425907,36.95518,Nyeri,Nyeri,Gakere Rd
618648,Nyeri hills,266000,-0.41103,36.903862,Nyeri,Nyeri,Unnamed Road
618650,Pamki,150000,-0.40944,36.983123,Nyeri,Nyeri,Nyeri-Nyahururu Rd
618651,Kiganjo Post office,150000,-0.382937,37.002632,Nyeri,Nyeri,Nyeri - Nanyuki Rd
618652,Othaya Exchange,221009,-0.550794,36.941426,Othaya,Nyeri,Unnamed Road
618653,Muranga_2,200000,-0.71816,37.159163,Murang'a,Murang'a,Muranga
618654,Aerosport Nanyuki,180000,0.022237,37.064809,Nanyuki,Laikipia,Unnamed Road
618656,Gatundu,140400,-1.013218,36.905467,Gatundu,Kiambu,Gatundu - Kinare Rd
618657,Juja,325000,-1.105455,37.016373,Juja,Kiambu,Meru - Nairobi Hwy
618658,Thika,333495,-1.037137,37.075642,Thika,Kiambu,Posta Ln
618659,Kenol,333495,-0.93895,37.126277,Kenol,Murang'a,Meru - Nairobi Hwy
618660,Makuyu,150000,-0.874947,37.239573,Nyeri,Nyeri,Unnamed Road
618661,Merila Barrage,990000,-0.764352,37.27688,Makutano,Embu,Embu - Nairobi Highway
618662,Sagana Exch,247963,-0.67001,37.206253,Sagana,Murang'a,C71
618663,Kibingoti,150000,-0.55111,37.1857,Nyeri,Nyeri,Sagana Karatina Rd
618664,Karatina,218509,-0.48123,37.127883,Karatina,Nyeri,A2
618665,Wambugu farm,180000,-0.446702,36.98652,Nyeri,Nyeri,Unnamed Road
618666,Mwirua,150000,-0.561215,37.231525,Nyeri,Nyeri,Unnamed Road
618667,Kanunga,150000,-0.549158,37.015299,Nyeri,Nyeri,Gakere Rd
618668,Othaya,150000,-0.556151,36.950109,Nyeri,Nyeri,Unnamed Road
618669,Mukurweni,217473,-0.561124,37.05159,Mukurweni,Nyeri,Othaya Karatina Road
618670,Ol Donyo Sabuk,166000,-1.140057,37.25746,Ol Donyo Sabuk,Machakos,A3
618671,Gatunyu,160000,-0.960925,36.994818,Thika,Kiambu,Thika-Gatura Rd
618673,Naromoru,194581,-0.170432,37.022352,Nyeri,Nyeri,Nyeri - Nanyuki Rd
618674,Kerugoya,259638,-0.49852,37.2797,Kerugoya,Kirinyaga,603 C74
618675,Maragwa,200000,-0.789945,37.129997,Maragwa,Murang'a,Unnamed Road
618676,Muranga,200000,-0.727903,37.156215,Murang'a,Murang'a,Unnamed Road
618677,Wanguru,247963,-0.6814,37.355022,Wanguru,Kirinyaga,Meru - Nairobi Hwy
618678,Kirirwa,145000,-0.85022,36.993968,Mukoe,Murang'a,C70
618679,Kangari,245828,-0.78512,36.86813,Kangari,Murang'a,112 Kaharati-kangari Rd
618680,Karatu,160000,-0.940193,36.816136,Kiawabuga,Kiambu,Unnamed Road
618681,Moyale Hill,266830,3.503563,39.024703,Moyale,Marsabit,Unnamed Road
618682,Marsabit RPT,266830,2.33443,37.975105,Marsabit,Marsabit,Unnamed Road
618683,Mandera,99273,3.9392,41.859578,Mandera,Mandera,Isiolo - Mandera Rd
618684,Wajir Town,266830,1.748354,40.05896,Wajir,Wajir,Isiolo - Mandera Rd
618685,Marallal KWS,517109,1.099662,36.684853,Marallal,Samburu,Unnamed Road
618686,Wamba,266000,0.995008,37.36205,Wamba,Samburu,KWS Road
618687,Laisamis,266830,1.513892,37.751583,Laisamis,Marsabit,A2
618688,Loldaika Hill,408410,0.211579,37.151224,Loldaika,Laikipia,Gakere Rd
618689,Mt Kulal,224674,2.654057,36.934863,Marsabit,Marsabit,Unnamed Road
618690,Turbi,266830,3.311177,38.384968,Turbi,Marsabit,Marsabit - Moyale Rd
618691,Baricho CDMA,220000,-0.554678,37.241783,Kirinyaga,Kirinyaga,Baricho Kagio Rd
618692,Madogashe,166000,0.733347,39.170842,Madogashe,Garissa,Isiolo - Mandera Rd
618693,Rhamu,266830,3.934893,41.2159,Rhamu,Mandera,Isiolo - Mandera Rd
618694,Elwak,266830,2.811425,40.928973,Elwak,Mandera,Isiolo - Mandera Rd
618695,Sukela Tinfu,242000,3.397769,40.911269,Mandera,Mandera,Isiolo - Mandera Rd
618697,Karo,266830,3.88864,41.67896,Karo,Mandera,Isiolo - Mandera Rd
618698,Tarbaj,266830,2.20717,40.116425,Tarbaj,Wajir,Isiolo - Mandera Rd
618699,Wargadud,266830,3.17898,40.865963,Wargadud,Mandera,Isiolo - Mandera Rd
618700,Dida Galgalo,266830,3.093025,38.252272,Dida Galgalo,Marsabit,Marsabit - Moyale Rd
618701,Eldera,166000,0.596765,38.834605,Eldera,Garissa,Isiolo - Mandera Rd
618702,Moyale Town,99273,3.523128,39.053178,Moyale Town,Marsabit,A2
618703,Shimbiri,266830,-0.031308,39.497747,Shimbiri,Garissa,Garissa-Modogashe Road
618704,Kanchara,266830,1.139946,39.657958,Kanchara,Wajir,Isiolo - Mandera Rd
618705,Boji Plains,266830,1.456427,39.905658,Boji Plains,Wajir,Isiolo - Mandera Rd
618706,Affat,266830,2.27039,40.271612,Affat,Mandera,Isiolo - Mandera Rd
618709,Awal Abdulla,266830,3.91913,41.330065,Mandera,Mandera,Isiolo - Mandera Rd
618710,Afwein KEEP,143580,0.352035,39.353578,Afwein,Garissa,Garissa-Modogashe Road
618711,Stema Relax,210000,-1.044868,37.095972,Thika,Kiambu,Kidhimani Rd
618712,Thika Makongeni,240000,-1.058778,37.107518,Thika,Kiambu,Kiganjo - British American Tobacco Rd
618713,Kiganjo Thika,250000,-1.069308,37.099915,Thika,Kiambu,Kiganjo - British American Tobacco Rd
618714,Thika Landless,960000,-1.06139,37.149562,Thika,Kiambu,Kamagambo Rd
618715,Upatia/Mbondoni,166000,-0.967925,37.982257,Mbondoni,Kitui,Unnamed Road
618716,Mwingi,166000,-0.935465,38.061282,Mwingi,Kitui,C94
618717,Voi TKL hse,180000,-3.393335,38.561911,Voi,Taita-Taveta,Unnamed Road
618719,Garbatulla,166000,0.530103,38.518373,Isiolo,Isiolo,Unnamed Road
618720,Telkom_Ol_Donyo_Sabach_Hill,266830,0.849395,37.562275,Samburu,Samburu,A2
618721,Telkom_Bartolimo,250000,0.685382,35.822827,BARINGO,Baringo,Bartolimo
618722,Orange_Ololulunga,320000,-1.003022,35.664302,NAROK,Narok,
618723,Nyayo Embakasi,300000,-1.307637,36.903528,Nairobi,Nairobi,Nyayo Estate
618725,Wathorego,180000,-0.050003,34.798467,Kisumu,Kisumu,"Wathorego, Kisumu, off Kisumu Vihiga Road"
618734,Bungoma Musikoma,180000,0.553555,34.549272,Bungoma,Bungoma,"Kanduyi, Bungoma"
618735,Musese,150000,0.720033,34.572493,Bungoma,Bungoma,"Musese, North Nalondo, Bungoma"
618736,Kaborok,120000,-0.39374,35.15849,Kericho,Kericho,"Kericho, Kabianga, Kaborok"
618737,Bungoma Kewa,150000,0.543247,34.557973,Bungoma,Bungoma,South Kanduyi
618738,Ligosi,120000,0.23503,34.23124,Siaya,Siaya,"North Ugenya, Sega, Ligosi"
618739,Amoni,120000,0.610085,34.238507,Busia,Busia,"South Teso, Osurette, Amoni"
618741,Nyilima Market,150000,-0.14747,34.38632,Siaya,Siaya,"Siaya,Omiya Malo"
618742,Gisambai,150000,0.054262,34.749158,Hamisi,Vihiga,Gisambai Shopping Centre off Kisumu Vihiga Road
618744,Sirisia,150000,0.75323,34.503748,Kimilili,Bungoma,"Sirisia, Kimilili, Bungoma"
618747,Webuye Matisi,170000,0.624172,34.693003,Malaba,Bungoma,"Webuye, Eldoret-Malaba road"
618748,Chemalal,120000,-0.52059,35.20817,Bomet,Bomet,"chemalal, Kimulot, Kapkelumben-Chema road"
618749,Tulienge,120000,0.780308,34.45382,Busia,Busia,"Tulienge, Sirisia-Busia road"
618750,Kibisi,120000,0.696872,34.862343,Webuye,Bungoma,"Kibisi, Lugari"
618751,Busembe,120000,0.169922,33.999379,Busia,Busia,"Busembe, Siaya-Rwambwa-Nyadorera Road"
618752,Ahero Junction,120000,-0.172385,34.933507,Kisumu,Kisumu,"Ahero, Off Nairobi road"
618753,Nyamasaria Dubai Complex,180000,-0.114657,34.789012,Kisumu,Kisumu,Nyamasaria
618754,Kisumu Nanga,200000,-0.131145,34.745348,Kisumu,Kisumu,Kisumu Nyalenda
618756,Mabera Town,180000,-1.165426,34.445908,Isebania,Migori,Suba Kuria Town
618757,Mbale South,180000,0.082571,34.720335,Maragoli,Vihiga,South Maragoli
618800,Ngao,117390,-2.419481,40.19123,Tana River,Tana River,Garsen
618801,Bura,138358,-1.193148,39.8382,Hola,Tana River,Garsen
618802,Garsen,122984,-2.26596,40.107537,Hola,Tana River,Garsen
618803,Masalani,182952,-1.691705,40.16929,Hola,Tana River,Garsen
618804,Hola,180000,-1.497959,40.024922,Hola,Tana River,Garsen
618805,Kamor Jila,87846,-1.357668,39.917163,Hola,Tana River,Garsen
618806,Vipingo,394984,-3.785837,39.822131,Kilifi,Kilifi,Kilifi
618807,Mariakani,180000,-3.86562,39.474903,Kilifi,Kilifi,Kilifi
618808,Roka,105415,-3.38544,39.927743,Kilifi,Kilifi,Kilifi
618809,Kinarani,164520,-3.732207,39.689205,Kilifi,Kilifi,Kilifi
618810,Kanamai_Majengo,223608,-3.9144,39.7616,Kilifi,Kilifi,Kilifi
618811,Jaribuni,150000,-3.643918,39.737964,Kilifi,Kilifi,Kilifi
618812,Tezo,115000,-3.53418,39.87791,Kilifi,Kilifi,Kilifi
618813,Chonyi,100000,-3.778877,39.693232,Kilifi,Kilifi,Chonyi Road
618814,Ganze,100000,-3.545375,39.692277,Kilifi,Kilifi,Kilifi
618815,Kilifi_Beach_Area,153730,-3.6052,39.8766,Kilifi,Kilifi,Kilifi
618816,Mtwapa,2400000,-3.947405,39.746003,Kilifi,Kilifi,Kilifi
618817,Kikambala,322000,-3.902093,39.785432,Kilifi,Kilifi,Kilifi
618818,Kilifi_Ruruma,97820,-3.873875,39.58744,Kilifi,Kilifi,Kilifi
618819,Kaloleni,230000,-3.811725,39.633788,Kilifi,Kilifi,Kilifi
618820,Kibaoni,200000,-3.706216,39.823124,Kilifi,Kilifi,Mombasa-Malindi Road
618821,Tsangatsini,106480,-3.78052,39.442637,Kilifi,Kilifi,Kilifi
618822,Kilifi_Town,181662,-3.630561,39.847956,Kilifi,Kilifi,Kilifi
618823,Kilifi_Bofa,113238,-3.5775,39.872,Kilifi,Kilifi,Kilifi
618824,Bamba,167700,-3.531825,39.530447,Kilifi,Kilifi,Kilifi
618825,Sokoke,235716,-3.47705,39.89748,Kilifi,Kilifi,Kilifi
618826,Mwangea,350000,-3.25692,39.720773,Kilifi,Kilifi,Kilifi
618827,Kilifi_Town_2,900000,-3.628227,39.861697,Kilifi,Kilifi,Kilifi
618828,Bamba Zowerani,300000,-3.545602,39.521617,Kilifi,Kilifi,Kilifi
618830,Vanga_Town,180000,-4.65948,39.216785,Kwale,Kwale,Kwale
618831,Msambweni,450000,-4.462126,39.482858,Kwale,Kwale,Kwale
618832,Tiwi,390000,-4.225756,39.579598,Kwale,Kwale,Kwale
618833,Shimoni,375000,-4.607937,39.382263,Kwale,Kwale,Kwale
618834,Ramisi,200000,-4.5359,39.32123,Kwale,Kwale,Kwale
618835,Ngombeni,106480,-4.132715,39.624718,Kwale,Kwale,Kwale
618836,Kwale_Town,250000,-4.174692,39.453525,Kwale,Kwale,Kwale
618837,Diani_South,175385,-4.356583,39.558965,Kwale,Kwale,Kwale
618838,Lunga_Lunga,101500,-4.545967,39.12107,Kwale,Kwale,Kwale
618839,Shimba_Hills,130000,-4.3769,39.40402,Kwale,Kwale,Kwale
618840,Kwale_Ukunda,300000,-4.280619,39.565323,Kwale,Kwale,Kwale
618841,Kwale_Makongeni,250000,-4.411787,39.498142,Kwale,Kwale,Kwale
618842,Mwangulu_Town,97820,-4.41103,39.12672,Kwale,Kwale,Kwale
618843,Diani_Center,1069579,-4.314453,39.574357,Kwale,Kwale,Kwale
618844,Mombasa_Diani_North,960000,-4.285989,39.590056,Kwale,Kwale,Kwale
618846,Kinango,107600,-4.139212,39.31476,Kwale,Kwale,Kwale
618847,Baobab Beach Resort,500000,-4.339213,39.565998,Kwale,Kwale,Kwale
618848,Mpeketoni,600000,-2.384628,40.697549,Lamu,Lamu,Lamu
618850,Lamu_Town,300000,-2.276429,40.904511,Lamu,Lamu,Lamu
618851,Ngomeni,140000,-2.98493,40.140894,Kilifi,Kilifi,Malindi
618852,Malindi_Casaurina,175692,-3.198327,40.11613,Kilifi,Kilifi,Malindi
618853,Malindi Cbd,1891500,-3.218992,40.11977,Kilifi,Kilifi,Malindi
618854,Watamu_East,190000,-3.35182,40.016265,Kilifi,Kilifi,Malindi
618855,Madunguni,133100,-3.199138,39.995921,Kilifi,Kilifi,Malindi
618856,Malindi_Chembe,127050,-3.310971,40.077607,Kilifi,Kilifi,Malindi
618857,Gede,266358,-3.300965,40.011897,Kilifi,Kilifi,Malindi
618858,Msabaha,180000,-3.254886,40.061027,Kilifi,Kilifi,Malindi
618859,Shella,241152,-3.240067,40.121911,Kilifi,Kilifi,Malindi
618860,Malindi_Tourist_Market,199650,-3.21897,40.12447,Kilifi,Kilifi,Malindi
618861,Kibokoni,160811,-3.180687,40.110784,Kilifi,Kilifi,Malindi
618862,Mambrui,750000,-3.11756,40.148712,Kilifi,Kilifi,Malindi
618863,Marafa,111804,-3.012378,39.96121,Kilifi,Kilifi,Malindi
618864,Mwenda_Pole,150000,-2.701073,40.142145,Kilifi,Kilifi,Malindi
618865,Malindi Kisumu Ndogo,200000,-3.22318,40.10494,Kilifi,Kilifi,Malindi
618866,Malindi_Airport_2,200000,-3.239066,40.095373,Kilifi,Kilifi,Malindi
618867,Malindi_Complex,278179,-3.2074,40.1168,Kilifi,Kilifi,Mombasa-Garissa Road
618868,Tudor Sea View Academy,1650000,-4.031807,39.666407,Mombasa (City),Mombasa,Mombasa
618869,Mombasa_Makaburini,310000,-4.035029,39.68534,Mombasa (City),Mombasa,Mombasa
618870,Mombasa_Nyali_Beach,443237,-4.057458,39.700482,Mombasa (City),Mombasa,Mombasa
618871,Mtongwe,210830,-4.07469,39.63799,Mombasa (City),Mombasa,Mombasa
618872,Kongowea,319440,-4.04479,39.68606,Mombasa (City),Mombasa,Mombasa
618873,Mombasa_Miritini,270000,-4.004353,39.580938,Mombasa (City),Mombasa,Mombasa
618874,Mombasa_Shelly_Beach,130000,-4.09665,39.668387,Mombasa (City),Mombasa,Mombasa
618875,Mombasa_Jomvu,400000,-4.010222,39.590922,Mombasa (City),Mombasa,Mombasa
618876,Mombasa_Changamwe,960000,-4.009185,39.624398,Mombasa (City),Mombasa,Mombasa
618877,Mombasa_Nasser,300000,-4.052023,39.67414,Mombasa (City),Mombasa,Mombasa
618878,Mombasa_Magongo,735000,-4.0217,39.6271,Mombasa ,Mombasa,"Refinery Road,Mombasa"
618880,Mombasa_Bamburi_Cement,360000,-4.00458,39.71307,Mombasa (City),Mombasa,Mombasa
618881,Mombasa_Polytechnic,428663,-4.036132,39.668448,Mombasa (City),Mombasa,Mombasa
618882,Mombasa_Utangu,219610,-3.970152,39.72036,Mombasa (City),Mombasa,Mombasa
618883,Mombasa_Voyager,440000,-4.035472,39.711445,Mombasa (City),Mombasa,Mombasa
618884,Mombasa_Sabasaba,300000,-4.045007,39.661322,Mombasa (City),Mombasa,Mombasa
618885,Mombasa_Mbaraki_Sports_Club,370000,-4.06913,39.668682,Mombasa (City),Mombasa,Mombasa
618886,Mombasa_Nyali_Centre,610705,-4.046412,39.697933,Mombasa (City),Mombasa,Mombasa
618888,Mombasa_Chaani,250000,-4.035014,39.620474,Mombasa (City),Mombasa,Mombasa
618889,Mombasa_Bombolulu,400000,-4.023217,39.704838,Mombasa (City),Mombasa,Mombasa
618890,Mombasa_Mto_Panga,400000,-4.002857,39.701039,Mombasa (City),Mombasa,Mombasa
618891,Mombasa_Bamburi,610000,-3.988387,39.737264,Mombasa (City),Mombasa,Mombasa
618892,Mombasa_Shanzu,2200000,-3.968855,39.747908,Mombasa (City),Mombasa,Mombasa
618893,Mtwapa_Mtomodoni,200000,-3.945731,39.734366,Mombasa (City),Mombasa,Mombasa
618894,Nyali-Links,400000,-4.0292,39.7136,Mombasa (City),Mombasa,Mombasa
618895,Aldina_Mkindani,900000,-3.99779,39.62019,Mombasa (City),Mombasa,Mombasa
618896,Likoni_346,900000,-4.099488,39.658664,Mombasa (City),Mombasa,Mombasa
618897,English_Point,3000000,-4.05971,39.694297,Mombasa (City),Mombasa,Mombasa
618898,Mombasa Mtopanga 2,250000,-4.014208,39.703107,Mombasa (City),Mombasa,Mombasa
618899,Mombasa_Shelly_Beach_2,1050000,-4.087874,39.668476,Mombasa (City),Mombasa,Mombasa
618900,Kilifi_Kiwanjani,900000,-3.614737,39.864273,Mombasa (City),Mombasa,Mombasa
618901,Mombasa_Likoni_New,880000,-4.085232,39.652874,Mombasa (City),Mombasa,Mombasa
618902,Mombasa_Mnazi,450000,-4.062572,39.665979,Mombasa (City),Mombasa,Sauti ya Kenya Road
618903,Mombasa_Nyali_South,360000,-4.05355,39.689598,Mombasa (City),Mombasa,Mombasa
618904,Mombasa_Lumumba,627000,-4.04978,39.65764,Mombasa (City),Mombasa,Mombasa
618905,Mombasa_Kilindini_New,450000,-4.05992,39.655768,Mombasa (City),Mombasa,Mombasa
618906,Mombasa_Jomo_Kenyatta,343083,-4.052427,39.666642,Mombasa (City),Mombasa,Mombasa
618907,Mombasa_Ganjoni,650000,-4.063715,39.658205,Mombasa (City),Mombasa,Mombasa
618908,Mombasa_Majengo,525000,-4.054275,39.660717,Mombasa (City),Mombasa,Mombasa
618909,Kizingo,450000,-4.070022,39.676557,Mombasa (City),Mombasa,Mombasa
618910,Mombasa_Old_Town,600000,-4.05845,39.67705,Mombasa (City),Mombasa,Mombasa
618911,Mombasa_Digo,475000,-4.058291,39.671211,Mombasa (City),Mombasa,Mombasa
618912,Mombasa_Industrial_Area,205000,-4.05341,39.65192,Mombasa (City),Mombasa,Mombasa
618913,Mombasa_Stadium,2400000,-4.046922,39.665682,Mombasa (City),Mombasa,Mombasa
618914,Mombasa_Shimanzi_Port_Gate,391440,-4.04585,39.64972,Mombasa (City),Mombasa,Mombasa
618915,Mombasa_Makupa,515000,-4.041757,39.658441,Mombasa (City),Mombasa,Mombasa
618916,Mombasa_Tudor,1840000,-4.0351,39.6628,Mombasa (City),Mombasa,Mombasa
618917,Mombasa_Kipevu,620000,-4.030908,39.632212,Mombasa (City),Mombasa,Mombasa
618919,Mombasa_Mwandoni,380000,-4.022176,39.688566,Mombasa (City),Mombasa,Mombasa
618920,Mombasa_Makadara_New,1890000,-4.0631,39.67407,Mombasa (City),Mombasa,Mombasa
618921,Mombasa_Mwembe_Tayari,300000,-4.05704,39.668738,Mombasa (City),Mombasa,Mombasa
618922,Mombasa_City_Mall,300000,-4.019294,39.721289,Mombasa (City),Mombasa,Mombasa
618923,Mlaleo_Kisauni,900000,-4.02516,39.68293,Mombasa (City),Mombasa,Mombasa
618924,Kiembeni Blue Estate,1200000,-3.984323,39.699482,Mombasa (City),Mombasa,Mombasa
618925,Kiun,1000000,-4.050975,39.688693,Mombasa (City),Mombasa,Mombasa
618926,TSS,360000,-4.062656,39.671864,Mombasa ,Mombasa,"Nkurumah Road, Mombasa"
618927,Athi River,108000,-1.468347,36.972512,Nairobi,Nairobi,Athi_River
618929,Ilbsil,900000,-2.181805,36.849229,Kajiado,Kajiado,Kajiado
618930,Ilmasin,230000,-1.500931,36.652895,Kajiado,Kajiado,Kajiado
618931,Iltoroto,100000,-2.07595,37.412217,Kajiado,Kajiado,Kajiado
618931,Iltoroto_Easement and Right of Access,200000,-2.07595,37.412217,Kajiado,Kajiado,Kajiado
618932,Isinya,1600000,-1.691389,36.850445,Kajiado,Kajiado,Kajiado
618933,Isinya New,300000,-1.774213,36.824638,Kajiado,Kajiado,Kajiado
618934,Kajiado_Town,750000,-1.840028,36.792437,Kajiado,Kajiado,Kajiado
618935,Emali Makutano,143000,-2.051835,37.421422,Kajiado,Kajiado,Kajiado
618936,Kisaju,750000,-1.633804,36.886725,Nairobi,Nairobi,Kajiado
618937,Kitengela,300000,-1.472572,36.96839,Kajiado,Kajiado,Kajiado
618938,Kitengela_Muigai,300000,-1.516478,36.951942,Nairobi,Nairobi,Kajiado
618939,Kitengela_Prisons,140000,-1.47074,36.947135,Kajiado,Kajiado,Kajiado
618940,Kitengela_Town,145000,-1.475068,36.96029,Kajiado,Kajiado,Kajiado
618941,Lukuny,450000,-2.512647,36.851792,Kajiado,Kajiado,Kajiado
618942,Magadi_Town,341100,-1.890515,36.290604,Kajiado,Kajiado,Kajiado
618943,Mpayeei_Stage,175000,-1.47793,36.73964,Kajiado,Kajiado,Kajiado
618944,Namanga,750000,-2.551872,36.795992,Kajiado,Kajiado,Kajiado
618945,Nkoroi,300000,-1.406202,36.706618,Kajiado,Kajiado,Kajiado
618946,Oloitokitok,270000,-2.927302,37.506077,Kajiado,Kajiado,Kajiado
618947,Olsirua_Hill,220000,-1.722913,36.695787,Kajiado,Kajiado,Kajiado
618948,Ostrich_Farm,158322,-1.560553,36.917123,Kajiado,Kajiado,Kajiado
618949,Pcea_Kitengela,150000,-1.482528,36.95868,Kajiado,Kajiado,Kajiado
618950,Rombo,140000,-3.065695,37.698568,Kajiado,Kajiado,Kajiado
618951,Tata Kajiado,540000,-1.964348,36.725158,Kajiado,Kajiado,Kajiado
618952,Wilson_Kilima_Kiu,270000,-1.79387,37.209897,Nairobi,Makueni,Off Mombasa Road
618953,Kisasi,200000,-1.523125,38.023642,Kitui,Kitui,Kitui
618954,Ikutha,303188,-2.06381,38.17845,Kitui,Kitui,Kitui
618955,Katulani,1306776,-1.487575,37.946767,Kitui,Kitui,Kitui
618956,Kitui Muslim,180000,-1.369755,38.003827,Kitui,Kitui,Mbusyani Road
618957,Kitui_Majengo,125000,-1.343549,37.983977,Kitui,Kitui,Kwavonza K.U. Kitui Campus Road
618958,Kitui_Town,1306776,-1.365954,38.014595,Kitui,Kitui,Kitui
618959,Ksyusiani,450000,-1.44212,37.84424,Kitui,Kitui,Kitui
618960,Kyangwithya,123176,-1.384376,37.986739,Kitui,Kitui,Kitui
618961,Mbitini,79860,-1.607453,38.09702,Kitui,Kitui,Kitui
618962,Mui,95000,-1.053293,38.196097,Kitui,Kitui,Kitui
618963,Mutito,122984,-1.240301,38.220149,Kitui,Kitui,Kitui
618964,Mutomo,1306776,-1.84603,38.213691,Kitui,Kitui,Kitui
618965,Nthongoni,120000,-1.628227,37.836892,Kitui,Kitui,Kitui
618966,Tulia,255500,-1.196505,37.96672,Kitui,Kitui,Ndolo Corner-Migwani Road
618967,Taru,390000,-3.774004,39.120164,Kwale,Kwale,Kwale
618968,Athi_River_Kmc,3250000,-1.451538,36.987598,Machakos,Machakos,Machakos
618969,Athi_River_Ngei,130000,-1.464133,36.97974,Machakos,Machakos,Machakos
618970,Athi_River_Portland,400000,-1.4374,36.967372,Machakos,Machakos,Machakos
618971,Daystar_Athi_River,366025,-1.444562,37.046135,Machakos,Machakos,Machakos
618972,Ekalakala,117128,-0.987317,37.474092,Machakos,Machakos,Machakos
618973,Simba Cement,200000,-2.389763,37.539772,Machakos,Machakos,Machakos
618974,Ikalaasa,100000,-1.525911,37.654954,Machakos,Machakos,Machakos
618975,Ikombe,93170,-1.280868,37.649253,Machakos,Machakos,Machakos
618976,Kaani,180000,-1.492282,37.330412,Machakos,Machakos,Machakos
618977,Kabaa,92238,-1.31436,37.45791,Machakos,Machakos,Machakos
618978,Kakuyuni,100000,-1.351012,37.349188,Machakos,Machakos,Machakos
618979,Kalukuni,93170,-1.237631,37.490843,Machakos,Machakos,Machakos
618980,Kamburu,200000,-0.755641,37.680146,Machakos,Machakos,Machakos
618981,Kangundo,600000,-1.312095,37.346709,Machakos,Machakos,Machakos
618982,Katangi,130000,-1.405394,37.68697,Machakos,Machakos,Machakos
618983,Kathekani,180000,-2.619672,38.13229,Machakos,Machakos,Machakos
618984,Katutu,140000,-1.190231,37.81924,Machakos,Machakos,Machakos
618985,Kithimani,120000,-1.195373,37.444783,Machakos,Machakos,Machakos
618986,Kongoni,120000,-1.269852,37.1518,Machakos,Machakos,Machakos
618987,Lita,100000,-1.448255,37.280007,Machakos,Machakos,Machakos
618988,Machakos Garden Hotel,300000,-1.512958,37.267867,Machakos,Machakos,Machakos
618989,Machakos_Centre,290000,-1.517078,37.269222,Machakos,Machakos,Machakos
618990,Machakos_Kathiani,720000,-1.427047,37.317615,Machakos,Machakos,Machakos
618991,Machakos_Market,180000,-1.520987,37.267699,Nairobi,Nairobi,Machakos
618992,Machakos_Masii,600000,-1.461197,37.423783,Machakos,Machakos,Machakos
618993,Machakos_Miwani_Estate,120000,-1.515698,37.251083,Machakos,Machakos,Machakos
618994,Machakos_St.Valentines,472875,-1.500578,37.261514,Machakos,Machakos,Machakos
618995,Machakos_Town,135700,-1.537147,37.266258,Machakos,Machakos,Machakos
618996,Matuu,320000,-1.149485,37.550248,Machakos,Machakos,Machakos
618997,Mitaboni,120000,-1.372572,37.249785,Machakos,Machakos,Machakos
618998,Mbevo Hill,115957,-1.65006,37.289613,Machakos,Machakos,Machakos
618999,Mlolongo,650000,-1.39231,36.939493,Machakos,Machakos,Machakos
619000,Muthetheni,87846,-1.494216,37.524652,Machakos,Machakos,Machakos
619001,Mutuobane_Market,127776,-0.73887,37.81332,Machakos,Machakos,Machakos
619002,Ngelani,360000,-1.436183,37.21376,Machakos,Machakos,Machakos
619003,Nguluni,100000,-1.284652,37.276802,Machakos,Machakos,Machakos
619004,Ngungi,111804,-1.070782,37.706227,Machakos,Machakos,Machakos
619005,Ol_Donyo_Sabuk,450000,-1.139845,37.257297,Machakos,Machakos,Machakos
619006,Syokimau,200000,-1.37132,36.947768,Machakos,Machakos,Machakos
619007,Tala,117860,-1.248302,37.290712,Machakos,Machakos,Machakos
619008,Theke_Hill,2550000,-1.563783,37.163006,Machakos,Machakos,Machakos
619009,Ulutya_Hill,102487,-0.96405,37.681682,Machakos,Machakos,Machakos
619010,Wamunyu,311800,-1.41178,37.547964,Machakos,Machakos,Kwavonza K.U. Kitui Campus Road
619011,Kalawa,101023,-1.607952,37.687823,Wote,Makueni,Makueni
619012,Kalawani,190000,-1.558378,37.446373,Wote,Makueni,Mulinge Road
619013,Kambu,100000,-2.596007,38.074687,Wote,Makueni,Makueni
619014,Kathonzweni,87846,-1.94902,37.78042,Wote,Makueni,Makueni
619015,Kathyaka,106480,-2.26815,37.961082,Wote,Makueni,Makueni
619016,Kibwezi_2,120000,-2.40746,37.967382,Wote,Makueni,Makueni
619017,Kinyunyini,200000,-1.808421,37.328385,Wote,Makueni,Makueni
619018,Kitise,200000,-2.055442,37.87977,Wote,Makueni,Makueni
619019,Kyakituku,100000,-1.8341,37.418818,Wote,Makueni,Makueni
619020,Machinery,170000,-2.520154,38.037082,Wote,Makueni,Mombasa Road
619021,Makindu,128000,-2.27579,37.82566,Wote,Makueni,Makueni
619022,Makueni_Kiboko,900000,-2.210852,37.720138,Wote,Makueni,Makueni
619023,Makueni_Mbui _Nzau,200000,-2.375223,37.909912,Wote,Makueni,Makueni
619025,Makuyuni,200000,-1.713162,37.452595,Wote,Makueni,Makueni
619026,Malooi_Hills,127776,-1.831335,37.559613,Wote,Makueni,Makueni
619027,Masue_Hill,200000,-2.009473,37.456555,Wote,Makueni,Makueni
619028,Matiliku,93184,-1.948972,37.532285,Wote,Makueni,Makueni
619029,Mavindini,106480,-1.81623,37.788628,Wote,Makueni,Makueni
619030,Mbooni,155307,-1.673457,37.45247,Wote,Makueni,Makueni
619031,Nthawe,276000,-2.667993,38.136883,Mtito Andei,Makueni,Mombasa Road
619032,Kikoko_Hill,92238,-1.803982,37.396392,Wote,Makueni,Makueni
619033,Salama,225000,-1.947352,37.324598,Wote,Makueni,Makueni
619034,Sultan Hamud 1,200000,-2.016922,37.373155,Wote,Makueni,Makueni
619035,Kilanguni_New,975000,-2.906437,38.06101,Mwatate,Taita-Taveta,Mtito Andei
619036,Mtito Andei,1200000,-2.6905,38.167527,Wote,Makueni,Mtito Andei
619037,Kairungu,540000,-0.884813,37.919749,Kitui,Kitui,Mwingi
619038,Kyuso,200000,-0.595977,38.174278,Mwingi,Kitui,Mwingi-Katse Road
619039,Mbondoni,120681,-0.969212,37.982617,Kitui,Kitui,Mwingi
619040,Mbuvu,1306776,-0.644038,38.408478,Kitui,Kitui,Mwingi
619041,Migwani,140000,-1.082048,38.04207,Kitui,Kitui,Mwingi
619042,Musavani,93170,-0.288228,38.252958,Kitui,Kitui,Mwingi
619043,Mutwangombe,531468,-0.87572,38.180013,Kitui,Kitui,Mwingi
619044,Mwingi_Pcea,120000,-0.933245,38.055293,Kitui,Kitui,Mwingi
619045,Mwingi_Town,180000,-0.943985,38.065793,Kitui,Kitui,Mwingi
619046,Ngiluni,108900,-0.771763,38.374592,Kitui,Kitui,Mwingi
619047,Nguni,106480,-0.791502,38.282598,Kitui,Kitui,Mwingi
619048,Nguutani,105415,-1.068568,37.869188,Kitui,Kitui,Mwingi
619049,Nuu,100000,-1.054362,38.36437,Kitui,Kitui,Mwingi
619050,Ukasi,140000,-0.804557,38.529901,Kitui,Kitui,Mwingi
619051,Waita,443563,-0.800721,38.086427,Mwingi,Kitui,Mwingi-Waita Road
619052,Ilbisil_Centre,150000,-2.100131,36.790578,Nairobi,Nairobi,Namanga
619053,Ghazi,540000,-3.239482,38.500875,Mwatate,Taita-Taveta,Voi
619054,Grogon_Hill,330000,-3.441295,37.73386,Mwatate,Taita-Taveta,Voi
619055,Kyulu_Hill,492485,-2.935015,38.409772,Mwatate,Taita-Taveta,Voi
619056,Manyani,492485,-3.082068,38.49253,Mwatate,Taita-Taveta,Voi
619057,Maungu,106293,-3.563264,38.748771,Mwatate,Taita-Taveta,Voi
619058,Mgange_Mwanda,120000,-3.398103,38.319887,Mwatate,Taita-Taveta,Voi
619059,Mwatongo_Hill,199690,-3.33327,38.42485,Mwatate,Taita-Taveta,Voi
619060,Taveta_Town,810000,-3.396468,37.676083,Mwatate,Taita-Taveta,Voi
619061,Voi,180000,-3.372816,38.564365,Mwatate,Taita-Taveta,Voi
619062,Wundanyi,1350000,-3.41874,38.369227,Mwatate,Taita-Taveta,Voi
619063,Mwea Wanguru,1080000,-0.678358,37.357517,Kerugoya / Kutus,Kirinyaga,Kerugoya
619064,Kiamutugu,441350,-0.44268,37.40819,Kerugoya / Kutus,Kirinyaga,Kerugoya
619065,Kutus,120000,-0.561915,37.369275,Kerugoya / Kutus,Kirinyaga,Kerugoya
619066,Kiamutugu_Shopping_Centre,125780,-0.4669,37.38723,Kerugoya / Kutus,Kirinyaga,Kerugoya
619067,Kimunye,151000,-0.428424,37.308437,Kerugoya / Kutus,Kirinyaga,Kerugoya
619068,Kagumo,139755,-0.47521,37.2348,Kerugoya / Kutus,Kirinyaga,Kerugoya
619069,Karumandi,120000,-0.445808,37.346552,Kerugoya / Kutus,Kirinyaga,Kerugoya
619070,Kimbimbi,120000,-0.622472,37.365143,Kerugoya / Kutus,Kirinyaga,Kerugoya
619071,Kerogoya_Town,264000,-0.505962,37.277936,Kerugoya / Kutus,Kirinyaga,Kerugoya
619072,Ihwagi,136825,-0.430265,37.166758,Kerugoya / Kutus,Kirinyaga,Kerugoya
619073,Kiangai,139755,-0.477605,37.178515,Kerugoya / Kutus,Kirinyaga,Kerugoya
619074,Kutus_Market,120000,-0.558102,37.328327,Kerugoya / Kutus,Kirinyaga,Kerugoya
619075,Kiagatha,125780,-0.4434,37.195188,Kerugoya / Kutus,Kirinyaga,Kerugoya
619076,Kianyaga,110000,-0.494872,37.352927,Kerugoya / Kutus,Kirinyaga,Kerugoya
619077,Murinduko,114345,-0.56621,37.46524,Kerugoya / Kutus,Kirinyaga,Kerugoya
619078,Baricho_Ndia,167706,-0.539931,37.241439,Kerugoya / Kutus,Kirinyaga,Kerugoya
619079,Kerugoya_Kongo_Estate,153730,-0.497658,37.280308,Kerugoya / Kutus,Kirinyaga,Kerugoya
619080,Mwea Town,250000,-0.686512,37.352707,Kerugoya / Kutus,Kirinyaga,Kerugoya
619081,Kutus Mjini,2000000,-0.573232,37.325682,Kerugoya / Kutus,Kirinyaga,Kerugoya
619082,Tigoni,470000,-1.115983,36.672057,Kiambu,Kiambu,"Off  Boma Road, Limuru"
619083,Kwamaiko,540000,-1.09149,36.865087,Kiambu,Kiambu,Kiambu
619084,Nazareth,250000,-1.123813,36.720972,Kiambu,Kiambu,Kiambu
619085,Thogoto,195903,-1.270538,36.675403,Kiambu,Kiambu,Kiambu
619086,Kinoo,300000,-1.249358,36.698365,Kiambu,Kiambu,Kiambu
619087,Kiratina,193261,-1.018143,36.827133,Kiambu,Kiambu,Kiambu
619088,Kamae,123000,-0.857513,36.626347,Kiambu,Kiambu,Kiambu
619089,Karai,130000,-1.273652,36.619237,Kiambu,Kiambu,Kiambu
619090,Kahuho,239250,-1.21358,36.675922,Kiambu,Kiambu,Kiambu
619091,Ruaka,210830,-1.208668,36.776047,Kiambu,Kiambu,Kiambu
619092,Gichuru,245968,-1.151803,36.668968,Kiambu,Kiambu,Kiambu
619093,Thigio_Kiambu,220000,-1.201267,36.597085,Kiambu,Kiambu,Kiambu
619094,Gitaru,900000,-1.230617,36.682657,Kiambu,Kiambu,Kiambu
619095,Ndeiya,125000,-1.133312,36.593078,Kiambu,Kiambu,Kiambu
619096,Ikinu,220000,-1.100268,36.787107,Kiambu,Kiambu,Kiambu
619097,Kambaa,120000,-1.068908,36.716055,Kiambu,Kiambu,Kiambu
619098,Gakoe,120000,-0.883238,36.796088,Kiambu,Kiambu,Kiambu
619099,Tinganga_Safcom,120000,-1.130072,36.806455,Kiambu,Kiambu,Kiambu
619100,Rukuma,140000,-1.017628,36.62426,Limuru,Kiambu,Nakuru-Nairobi Road
619101,Kagwe,120000,-1.004988,36.739862,Kiambu,Kiambu,Kiambu
619102,Kibichoi,120000,-1.051248,36.868637,Kiambu,Kiambu,Kiambu
619103,Nyathuna,110000,-1.187837,36.686637,Kiambu,Kiambu,Kiambu
619104,Muchatha_Village_Safcom,130000,-1.193913,36.778222,Kiambu,Kiambu,Kiambu
619105,Kinale,382016,-0.93014,36.616638,Kiambu,Kiambu,Kiambu
619106,Ting'ang'a,129133,-1.099712,36.820713,Kiambu,Kiambu,Karia Road
619107,Kiambaa_Centre,240000,-1.160008,36.74393,Kiambu,Kiambu,Kiambu
619108,Karura,120000,-1.194948,36.729655,Kiambu,Kiambu,Kiambu
619109,Kiambu_Kamiti,190000,-1.178827,36.891212,Kiambu,Kiambu,Kiambu
619110,Kikuyu_2,230000,-1.242512,36.66328,Kiambu,Kiambu,Kiambu
619111,Wangige,379800,-1.238413,36.728233,Kiambu,Kiambu,Kiambu
619112,Nairobi_UNEP,545000,-1.22969,36.81879,Nairobi,Nairobi,Kiambu
619114,Kihara_Redhill_Road,250000,-1.219373,36.778362,Kiambu,Kiambu,Kiambu
619115,Nairobi_Runda_Police,2000000,-1.2182,36.8273,Nairobi,Nairobi,Kiambu
619116,Wangige_Market,220000,-1.217453,36.71073,Kiambu,Kiambu,Kiambu
619117,Nairobi_Runda,554559,-1.21423,36.80707,Nairobi,Nairobi,Kiambu
619118,Muguga,478895,-1.19442,36.651217,Kiambu,Kiambu,Kiambu
619119,Kiambaa,1400000,-1.177863,36.750028,Kiambu,Kiambu,Kiambu
619120,Kianjogu,115000,-1.169813,36.702853,Kiambu,Kiambu,Kiambu
619121,Kanunga_Kiambu,164400,-1.160443,36.781167,Kiambu,Kiambu,Kiambu
619122,Kiambu_Town,400000,-1.159623,36.820275,Kiambu,Kiambu,Kiambu
619123,Limuru,135000,-1.111617,36.63431,Kiambu,Kiambu,Kiambu
619124,Githunguri,199576,-1.059,36.777298,Kiambu,Kiambu,Kiambu
619125,Gitithia,389500,-1.050845,36.6242,Kiambu,Kiambu,Kiambu
619126,Lari,159450,-0.954362,36.635857,Kiambu,Kiambu,Kiambu
619127,Nairobi_Ridgeways_New,250000,-1.229623,36.845732,Nairobi,Nairobi,Kiambu
619128,Kiambu_Thembigua,300000,-1.20679,36.83445,Nairobi,Nairobi,Kiambu
619129,Ruiru_Mow,200000,-1.155583,36.946863,Nairobi,Nairobi,Kiambu
619130,Ruiru Kimbo,300000,-1.139448,36.973718,Nairobi,Kiambu,Embu-Nairobi Highway
619131,Ruiru Kamakis,1250000,-1.16555,36.978712,Nairobi,Nairobi,Kiambu
619132,Banana Hills,200000,-1.1739,36.7574,Nairobi,Nairobi,Kiambu
619133,Wangige_Kibichiko,250000,-1.227213,36.728985,Nairobi,Nairobi,Kiambu
619134,Membley,300000,-1.161962,36.936638,Nairobi,Nairobi,kiambu
619135,Kiambu_Kasarini,400000,-1.19995,36.824432,Kiambu,Kiambu,Kiambu
619136,Kihara_Gachie Area,350000,-1.217,36.76144,Nairobi,Nairobi,Kiambu
619137,Ridgeways,1680000,-1.228907,36.864652,Nairobi,Nairobi,Kiambu
619138,Ruiru _Murera Area,1600000,-1.163988,36.961608,Nairobi,Nairobi,Kiambu
619139,Tigoni_2,230000,-1.2172,36.7342,Nairobi,Nairobi,Kiambu
619140,Ku Teaching Refferal,220000,-1.172883,36.916817,Nairobi,Nairobi,Kiambu
619141,Kiambu Ruabai,540000,-1.155457,36.83136,Kiambu,Kiambu,Kiambu
619142,Ngarariga,540000,-1.086905,36.627437,Kiambu,Kiambu,Kiambu
619143,Kagwe_New,540000,-1.028772,36.786407,Kiambu,Kiambu,Kiambu
619144,Wanguthu_Banana,180000,-1.17652,36.77705,Nairobi,Nairobi,Kiambu
619145,Kiambu_Rumenye,200000,-1.20146,36.760912,Kiambu,Kiambu,Kiambu
619146,Giraru Rikubi,600000,-1.228962,36.698115,Wangige,Kiambu,Rukubi-Kanyariri Road
619147,Water Tower (Cow),400000,-1.129047,36.899608,Nairobi,Nairobi,Kiambu
619148,Tatu Industrial Cow,400000,-1.140218,36.911218,Nairobi,Nairobi,Kiambu
619149,Windsor Marurui,460000,-1.2094,36.8715,Nairobi,Nairobi,Kiambu
619150,Brackenhurst,750000,-1.11855,36.676345,Kiambu,Kiambu,Kiambu
619151,Limuru_2,350000,-1.111922,36.649102,Kiambu,Kiambu,Off Kiambu Road
619152,Kiambu_Law_Courts,200000,-1.173,36.8309,Nairobi,Nairobi,Kiambu
619153,Juja Mucatha,900000,-1.10295,37.01039,Nairobi,Nairobi,Kiambu
619154,Crystal Spring Apartments,3000000,-1.29192,36.75639,Nairobi,Nairobi,Kiambu
619155,Ndumberi,385875,-1.15195,36.80531,Nairobi,Nairobi,Kiambu
619156,Reymark Hotel(Kiambu Town),1350000,-1.16901,36.82692,Kiambu,Kiambu,Kiambu
619157,Kiambu-Mapa House,240000,-1.171372,36.828725,Kiambu,Kiambu,Kiambu
619158,Thika Arcade,283800,-1.037216,37.073717,Kiambu,Kiambu,Kiambu
619159,Murang'A_Town,250000,-0.728057,37.155765,Murang'a,Murang'a,Muranga
619160,Kibirigwi,105000,-0.521243,37.197248,Murang'a,Murang'a,
619161,Kangema,240000,-0.68369,36.96281,Murang'a,Murang'a,Muranga
619162,Gatuya,161900,-0.728738,37.033813,Murang'a,Murang'a,Muranga
619163,Mugoiri,122167,-0.727165,37.110165,Murang'a,Murang'a,Muranga
619164,Ngonda,92340,-0.807435,36.978817,Murang'a,Murang'a,Muranga
619165,Kiambugi,129134,-0.60504,37.018508,Murang'a,Murang'a,Muranga
619166,Mugeka,205000,-0.645035,37.092467,Murang'a,Murang'a,Muranga
619167,Nyakianga,238837,-0.650774,36.866418,Murang'a,Murang'a,Muranga
619168,Gatara,95000,-0.717858,36.877203,Murang'a,Murang'a,Muranga
619169,Gikoe,429000,-0.63381,36.93279,Murang'a,Murang'a,Muranga
619170,Muriranja,130000,-0.74731,36.97772,Murang'a,Murang'a,Muranga
619171,Githumu,100000,-0.813277,36.899256,Murang'a,Murang'a,Muranga
619172,Kenol,966303,-0.94057,37.12553,Murang'a,Murang'a,Muranga
619173,Kandara,130000,-0.897088,37.003717,Murang'a,Murang'a,Muranga
619174,Gatura,177000,-0.845573,36.83911,Murang'a,Murang'a,Thika-Gatura Road
619175,Gakuyu,160000,-0.852997,37.087702,Murang'a,Murang'a,Muranga
619176,Gacharage,103000,-0.84981,36.963732,Murang'a,Murang'a,Muranga
619177,Kimorori_North,180000,-0.910585,37.071081,Murang'a,Murang'a,Muranga
619178,Ciumbu,200000,-0.876528,37.224032,Murang'a,Murang'a,Muranga
619179,Kirere,125780,-0.81057,37.024297,Murang'a,Murang'a,Muranga
619180,Sabasaba,120000,-0.879165,37.137812,Murang'a,Murang'a,Muranga
619181,Kakuzi,120000,-0.964022,37.296967,Murang'a,Murang'a,Muranga
619182,Maragua_Town,400000,-0.801273,37.136238,Murang'a,Murang'a,Muranga
619183,Kangare,720000,-0.785597,36.868315,Murang'a,Murang'a,Muranga
619184,Muranga_North,350000,-0.676478,37.14474,Murang'a,Murang'a,Muranga
619185,Sagana,140307,-0.636928,37.21627,Murang'a,Murang'a,Muranga
619186,Gichichi,125780,-0.600165,36.902665,Murang'a,Murang'a,Muranga
619187,Ruiru,358355,-1.147975,36.95799,Kiambu,Kiambu,Thika
619188,Juja,900000,-1.10009,37.01621,Kiambu,Kiambu,Thika
619189,Gatundu,600000,-1.00314,36.903338,Kiambu,Kiambu,Thika
619190,Zena_Roses,120000,-0.964405,37.012907,Kiambu,Kiambu,Thika
619191,Mangu,230000,-1.075252,37.048542,Kiambu,Kiambu,Thika
619192,Juja_Farm,120000,-1.162812,37.080722,Kiambu,Kiambu,Thika
619194,Thika_Landless_Estate,150000,-1.06303,37.150888,Kiambu,Kiambu,Thika
619195,Thika_Kyanjau,100000,-1.067675,37.080515,Kiambu,Kiambu,Thika
619196,Kiganjo_Gatundu,110000,-0.996737,36.851433,Kiambu,Kiambu,Thika
619197,Githurai_Mwihoko,180000,-1.215457,36.968358,Kiambu,Kiambu,Thika
619198,Gatukuyu,120000,-0.977603,36.96219,Kiambu,Kiambu,Thika
619199,Thika_Highlevel,350000,-0.997687,37.071795,Kiambu,Kiambu,Thika
619200,Thika_Makongeni,250000,-1.057571,37.105321,Kiambu,Kiambu,Thika
619201,Ruiru_Mills,126498,-1.088562,36.920115,Kiambu,Kiambu,Thika
619202,Kahawa,500000,-1.190065,36.931035,Kiambu,Kiambu,Thika
619203,Murera,175000,-1.113318,36.955443,Kiambu,Kiambu,Thika
619204,Kalimoni_Kenyatta_Road,144000,-1.126342,37.00671,Kiambu,Kiambu,Thika
619205,Thika_Industrial_Area,1100000,-1.047288,37.088333,Kiambu,Kiambu,Off General Kago Road
619206,Thika_Town,480000,-1.039435,37.072655,Kiambu,Kiambu,Thika
619207,Gatundu_North,130000,-0.944478,36.88803,Kiambu,Kiambu,Thika
619208,Gatanga,185000,-0.940642,36.955695,Kiambu,Kiambu,Thika
619209,Mururia,190000,-0.932912,36.80329,Kiambu,Kiambu,Thika
619210,Thare_Kandara,115000,-0.88237,36.90443,Kiambu,Kiambu,Thika
619211,Thika_Riverside,170000,-1.037283,37.046582,Nairobi,Nairobi,Thika
619212,Thika_Makongeni_2,300000,-1.046565,37.099118,Nairobi,Nairobi,Thika
619213,Thika_Maki,1200000,-1.025382,37.061547,Nairobi,Nairobi,Thika
619214,Thika_Haile_Selassie,250000,-1.035832,37.076798,Kiambu,Kiambu,Thika
619215,Sabuk 2,150000,-1.097308,37.332178,Kiambu,Kiambu,Thika
619216,Thika Cemetry,550000,-1.037209,37.065089,Nairobi,Nairobi,Thika
619217,Thika_Kilifi,900000,-1.040855,37.080978,Kiambu,Kiambu,Thika
619218,Kamugere,600000,-0.41681,37.523413,Embu,Embu,Embu
619219,Embu_Kimathi,150000,-0.540597,37.453042,Embu,Embu,Embu
619220,Siakago,120000,-0.574468,37.646743,Embu,Embu,Embu
619221,Ishiara,148000,-0.45113,37.78952,Embu,Embu,Embu
619222,Kanyuambora,120000,-0.466335,37.715935,Embu,Embu,Embu
619223,Kianjiru_Hills,2650000,-0.681403,37.613357,Embu,Embu,Embu
619224,Githimu,110000,-0.51027,37.52013,Embu,Embu,Embu
619225,Makutano,500000,-0.77621,37.2789,Embu,Embu,Embu
619226,Embu_Town,2650000,-0.532801,37.450363,Embu,Embu,Embu
619227,Embu_Kari,350000,-0.502012,37.46026,Embu,Embu,Embu
619228,Runyenjes_Improvement,130000,-0.45936,37.60891,Embu,Embu,Embu
619229,Kianjokoma,190000,-0.40388,37.50383,Embu,Embu,Embu
619230,Mufu,100000,-0.40058,37.594515,Embu,Embu,Embu
619231,Embu_Nguviu,120000,-0.419127,37.446763,Embu,Embu,Embu
619232,Manyata,130000,-0.43001,37.47845,Embu,Embu,Embu
619233,Nkarue_Hill,300000,-0.461413,37.5397,Embu,Embu,Embu
619234,Gachoka,1050000,-0.770472,37.365998,Embu,Embu,Embu
619235,Embu_Ngariama,640000,-0.534641,37.462044,Embu,Embu,Embu
619236,Naningi,87846,-0.965158,39.74573,Hola,Tana River,Garissa
619237,Liboi,180000,0.354572,40.87345,Garissa,Garissa,Garissa
619238,Daadab,480000,0.056947,40.305985,Garissa,Garissa,Garissa
619239,Modicar,240000,-0.37986,39.712958,Garissa,Garissa,Garissa
619240,Haraa,535925,-1.966705,40.206397,Garissa,Garissa,Garissa
619241,Abed_Samwet,220000,0.050888,39.654598,Garissa,Garissa,Garissa
619242,Dertu,228000,0.28537,39.79972,Garissa,Garissa,Garissa
619243,Tula,87846,-0.755145,39.653333,Hola,Tana River,Garissa
619245,Madogo,87846,-0.562518,39.394658,Hola,Tana River,Garissa
619246,Shimbiri,1269774,-0.005618,39.463243,Hola,Tana River,Garissa
619247,Madogo Town,120000,-0.473718,39.605611,Garissa,Garissa,Garissa
619248,Garissa Iftin,120000,-0.4577,39.65165,Garissa,Garissa,Garissa
619249,Garissa_Technical,540000,-0.439933,39.641143,Garissa,Garissa,Garissa
619250,Isiolo_Town,1440000,0.352543,37.584698,Isiolo,Isiolo,Isiolo
619251,Archers_Post,138355,0.637732,37.666477,Isiolo,Isiolo,Isiolo
619253,Elwak,138357,2.808583,40.926842,Mandera,Mandera,Mandera
619254,Rhamu,240000,3.932667,41.220253,Mandera,Mandera,Mandera
619255,Kutulo,125000,2.40752,40.59617,Mandera,Mandera,Mandera
619256,Mandera_Town,2160000,3.935924,41.857022,Mandera,Mandera,Mandera
619257,Elhache,240000,2.798197,40.935635,Mandera,Mandera,Mandera
619258,Derkale,240000,3.858783,40.266832,Mandera,Mandera,Mandera
619260,Al Yusra Hotel Moyale,1200000,3.520828,39.057778,Marsabit,Marsabit,Marsabit
619261,Timau,200000,0.132915,37.294405,Meru,Meru,Meru
619262,Nkoriga,450000,0.097051,37.548902,Meru,Meru,Meru
619263,Nkubu,120000,-0.059201,37.632745,Meru,Meru,Meru
619264,Mwimbi,150000,-0.24827,37.65018,Meru,Meru,Meru
619265,Githongo,120000,0.000252,37.592548,Meru,Meru,Meru
619266,Katimbi,250000,-0.01485,37.6594,Meru,Meru,Meru
619267,Nthumburi,126000,0.206947,37.528983,Meru,Meru,Meru
619268,Chogoria,175692,-0.22202,37.612138,Meru,Meru,Meru
619269,Thuura,120000,0.0368,37.72983,Meru,Meru,Meru
619270,Kianjai,750000,0.162508,37.74639,Meru,Meru,Meru
619271,Maua,645000,0.233551,37.944845,Meru,Meru,Meru
619272,Mutuati,130000,0.368562,37.988512,Meru,Meru,Meru
619273,Laare,135000,0.343937,37.947282,Meru,Meru,Meru
619275,Kirindine,150000,0.16795,37.94163,Meru,Meru,Meru
619276,Athiru,100000,0.21937,37.97248,Meru,Meru,Meru
619277,Meru_Makutano,300000,0.057923,37.642343,Meru,Meru,Meru
619278,Ntunyai,180000,-0.170618,37.828522,Kathwana,Tharaka-Nithi,Meru
619279,Mikinduri,120000,0.127571,37.849672,Kathwana,Tharaka-Nithi,Meru
619280,Kinoro_Mugae,600000,-0.153663,37.621784,Meru,Meru,Meru
619281,Kiathandi_Hill,185000,0.088042,37.661682,Meru,Meru,Meru
619282,Laare_Town,139000,0.32228,37.94063,Meru,Meru,Meru
619283,Nkubu_Town,400000,-0.070634,37.667583,Meru,Meru,Meru
619284,Mpuri,130000,0.01853,37.60642,Meru,Meru,Meru
619285,Sheki,120000,0.034425,37.109254,Meru,Meru,Meru
619286,Karema_Maili_Tatu,126000,0.26846,37.936,Meru,Meru,Meru
619287,Kithiru,180000,0.129275,37.818024,Meru,Meru,Meru
619288,Mitunguu_Kiija,130000,-0.0925,37.761017,Meru,Meru,Meru
619289,Magutuni,170000,-0.2304,37.73057,Meru,Meru,Meru
619290,Marimanti,120000,-0.143422,37.980246,Kathwana,Tharaka-Nithi,Meru
619291,Meru_Kiriine,300000,0.03676,37.653798,Meru,Meru,Meru
619292,Meru_Gikoromone,720000,0.048116,37.667264,Meru,Meru,Meru
619293,Meru_Timber,220000,0.0575,37.633055,Meru,Meru,Meru
619294,Kathangacini,120000,-0.109097,38.161892,Kathwana,Tharaka-Nithi,Meru
619295,Kangeta,180000,0.280972,37.88105,Meru,Meru,Meru
619296,Kawiru,160000,0.284426,37.998731,Meru,Meru,Meru
619297,Kathelwa,800000,0.297949,37.910389,Meru,Meru,Meru
619298,Chera,130000,-0.371398,37.678471,Meru,Meru,Meru
619299,Ikuu,190000,-0.355443,37.62348,Meru,Meru,Meru
619300,Kajiampau,112000,-0.30132,37.84612,Meru,Meru,Meru
619301,Kenyakine,170000,-0.124712,37.672494,Meru,Meru,Meru
619302,Rubiri,175000,-0.04008,37.59438,Meru,Meru,Meru
619303,Gikumeene,150000,0.0274,37.65666,Meru,Meru,Meru
619304,Meru_Town,1600000,0.0504,37.64098,Meru,Meru,Meru
619305,Ruiri,110000,0.154718,37.64158,Meru,Meru,Meru
619306,Anchenge,140000,0.191932,37.942764,Meru,Meru,Meru
619307,Meru_East,480000,0.046442,37.655848,Meru,Meru,Meru
619308,Chuka,400000,-0.33331,37.64427,Meru,Meru,Meru
619309,Nanyuki,1800000,0.015439,37.073901,Rumuruti,Laikipia,Nanyuki
619310,Doldol,450000,0.387238,37.18751,Rumuruti,Laikipia,Nanyuki
619311,Berguret,170000,-0.0752,36.9906,Rumuruti,Laikipia,Nanyuki
619312,Mount_Kenya_Safari_Club,210000,-0.023121,37.119195,Rumuruti,Laikipia,Nanyuki
619314,Chaka_Muthaiga,280000,-0.332148,37.00197,Kiambu,Kiambu,Nyeri
619315,Kagongo,390000,-0.57829,36.9277,Nyeri,Nyeri,Nyeri
619316,Endarasha,120000,-0.205091,36.731431,Nyeri,Nyeri,Nyeri
619317,Gatitu,138357,-0.457244,37.002505,Nyeri,Nyeri,Nyeri
619319,Nyeri_Sikuta,150000,-0.432602,36.96853,Nyeri,Nyeri,Nyeri
619320,Nyeri_Ruringu,120000,-0.438543,36.959665,Nyeri,Nyeri,Nyeri
619321,Muthinga,120000,-0.505877,37.012652,Nyeri,Nyeri,Nyeri
619322,Watuka,130000,-0.28215,36.75887,Nyeri,Nyeri,Nyeri
619323,Nyeri_St_Marys,212428,-0.427402,36.960528,Nyeri,Nyeri,Nyeri
619324,Nyeri_Gichanga,145200,-0.417193,36.932802,Kabarnet,Nyeri,Nyeri
619325,Kangurwe,100000,-0.591908,37.119896,Nyeri,Nyeri,Nyeri
619326,Kanunga,116000,-0.548051,37.090856,Nyeri,Nyeri,Nyeri
619328,Munyange,107600,-0.50425,36.869078,Nyeri,Nyeri,Nyeri
619329,Karatina,460000,-0.487592,37.12697,Nyeri,Nyeri,Nyeri
619330,Gathumbi,97829,-0.442424,37.112146,Nyeri,Nyeri,Nyeri
619331,Nyeri_East,400000,-0.42959,36.93863,Nyeri,Nyeri,Nyeri
619332,Nyeri_North,900000,-0.421672,36.947405,Nyeri,Nyeri,Nyeri
619333,Kingongo,152460,-0.414394,36.95912,Nyeri,Nyeri,Nyeri
619334,Nyeri_Hill,350000,-0.41101,36.90234,Nyeri,Nyeri,Nyeri
619335,Ngandu,95000,-0.40526,37.05739,Nyeri,Nyeri,Nyeri
619336,Mweiga,139755,-0.353464,36.884129,Nyeri,Nyeri,Nyeri
619337,Kimahuri,143200,-0.295017,37.117404,Nyeri,Nyeri,Nyeri
619338,Loisoi,159720,-0.266803,37.01581,Nyeri,Nyeri,Nyeri
619339,Naru_Moru,290000,-0.165496,37.019523,Nyeri,Nyeri,Nyeri
619340,Nyeri Thegenge,220000,-0.43366,36.950937,Nyeri,Nyeri,Nyeri
619341,Nyeri Provincial_Hospital,200000,-0.426313,36.96816,Nyeri,Nyeri,Nyeri
619342,Othaya _Town,600000,-0.551225,36.944519,Nyeri,Nyeri,Nyeri
619343,Karatina_Minju_Plaza,184477,-0.48135,37.12381,Nyeri,Nyeri,Nyeri
619344,Nyeri _Cbd,250000,-0.422952,36.954187,Nyeri,Nyeri,Nyeri
619345,Moda_Gashe,160000,0.728563,39.170632,Isiolo,Isiolo,Isiolo-Mandera Road
619346,Habaswein,183678,1.013342,39.490333,Wajir,Wajir,Wajir
619347,Kampi_Ya_Samaki,167706,0.636002,36.005747,Kabarnet,Baringo,Kabarnet
619348,Marigat,95000,0.46964,35.98231,Kabarnet,Baringo,Kabarnet
619349,Maji_Moto,111804,0.287137,36.040915,Kabarnet,Baringo,Kabarnet
619350,Kiptere,110686,-0.38037,35.12775,Kericho,Kericho,Kericho
619351,Sigowet,121121,-0.395695,35.034751,Kericho,Kericho,Kericho
619352,Kedowa,141000,-0.22014,35.55442,Kericho,Kericho,Kericho
619353,Kericho_Town_Improvement,160000,-0.370237,35.281515,Kericho,Kericho,Kericho
619354,James_Finlay,220000,-0.42624,35.28372,Kericho,Kericho,Kericho
619355,Kericho_Kapsuser,128841,-0.36766,35.24465,Kericho,Kericho,Kericho
619356,Kapsoit,159720,-0.319932,35.240762,Kericho,Kericho,Kericho
619357,Cheptalal,120000,-0.597545,35.357903,Kericho,Kericho,Kericho
619358,Kiptiget,175000,-0.566318,35.287607,Kericho,Kericho,Kericho
619359,Roret,129134,-0.499013,35.097802,Kericho,Kericho,Kericho
619360,Chebowen,277771,-0.436467,35.209752,Kericho,Kericho,Kericho
619361,Kericho_Town,730000,-0.370797,35.286606,Kericho,Kericho,Kericho
619362,Kipchimchim,134000,-0.350509,35.278181,Kericho,Kericho,Kericho
619363,Sitotwet,325000,-0.308442,35.19584,Kericho,Kericho,Kericho
619364,Koyabei,130000,-0.214447,35.213757,Kericho,Kericho,Off Kipsitet-Muhoroni Road
619365,Londiani,600000,-0.132092,35.583495,Kericho,Kericho,Kericho
619366,Naivasha Crater Lake,250000,-0.79579,36.24819,Nakuru,Nakuru,Naivasha
619367,Enashipae Karagita,600000,-0.775092,36.429242,Nakuru,Nakuru,Naivasha
619368,Mogotio,96630,0.01764,36.10545,Kabarnet,Baringo,Nakuru
619369,Elburgon,1000000,-0.295825,35.80374,Nakuru,Nakuru,Nakuru
619370,Njoro,1080000,-0.333455,35.941747,Nakuru,Nakuru,Nakuru
619371,Kabarak,675000,-0.178438,35.976515,Nakuru,Nakuru,Nakuru
619372,Thigio,114000,-0.348153,35.663341,Nakuru,Nakuru,Nakuru
619373,Kerisoi,157085,-0.303905,35.53979,Nakuru,Nakuru,Nakuru
619374,Turi,150000,-0.27095,35.757137,Nakuru,Nakuru,Nakuru
619375,Nakuru_Stima_Line,150000,-0.304931,36.059455,Nakuru,Nakuru,"Off Baringo Road, Nakuru"
619376,Nakuru_Kaptembwa,136000,-0.294477,36.043562,Nakuru,Nakuru,Nakuru
619377,Likia,552365,-0.526083,35.970885,Nakuru,Nakuru,Nakuru
619378,Nakuru_Bondeni,130000,-0.294,36.0778,Nakuru,Nakuru,Nakuru
619379,Nakuru_Pangani,160000,-0.304448,36.07709,Nakuru,Nakuru,Nakuru
619380,Nakuru_Unga_Estate,200000,-0.280298,36.056115,Nakuru,Nakuru,Nakuru
619381,Naivasha_Kenyatta_Avenue,150000,-0.727448,36.445937,Nakuru,Nakuru,Nakuru
619382,Nakuru_Wei_Wei,120000,0.050977,36.222175,Nakuru,Nakuru,Nakuru
619383,Nakuru_Rhonda_West,120000,-0.305097,36.0493,Nakuru,Nakuru,Nakuru
619384,Esageri,122984,-0.04563,35.835042,Kabarnet,Baringo,Nakuru
619385,Naivasha,500000,-0.713938,36.43616,Nakuru,Nakuru,Nakuru
619386,Nakuru_Koinange,260000,-0.292778,36.056953,Nakuru,Nakuru,Nakuru
619387,Nakuru_Naka,163000,-0.287717,36.106238,Nakuru,Nakuru,Nakuru
619388,Mau_Summit,155000,-0.145427,35.685157,Nakuru,Nakuru,Nakuru
619389,Naivasha_South,1200000,-0.795012,36.42916,Nakuru,Nakuru,Nakuru
619390,Menengai,750000,-0.254563,36.089003,Nakuru,Nakuru,Nakuru
619391,Oserian,244335,-0.833158,36.30982,Nakuru,Nakuru,Nakuru
619392,Olenguruone,230000,-0.58511,35.666477,Nakuru,Nakuru,Nakuru
619393,Naivasha_North_Lake_Road,252067,-0.656902,36.335287,Nakuru,Nakuru,Nakuru
619394,Nakuru_Mawaka,290000,-0.26483,36.115698,Nakuru,Nakuru,Nakuru
619395,Nakuru_Fifty_Eight,350000,-0.290663,36.09119,Nakuru,Nakuru,Nakuru
619396,Solai_Arutani,140000,-0.072933,36.118801,Nakuru,Nakuru,Nakuru
619397,Nakuru_Bahati,165000,-0.15822,36.146932,Nakuru,Nakuru,Nakuru
619398,Nakuru_Ngata,526203,-0.261081,35.97987,Nakuru,Nakuru,Nakuru
619399,Njoro_Campus,170000,-0.3768,35.93364,Nakuru,Nakuru,Nakuru
619400,Nakuru_Racetrack,160000,-0.309472,36.07092,Nakuru,Nakuru,Nakuru
619401,Rongai_Salgaa,140000,-0.230017,35.884748,Nakuru,Nakuru,Nakuru
619402,Nakuru Ttc/Industries,130000,-0.280828,36.121352,Nakuru,Nakuru,Nakuru
619403,Naivasha_Kabati,150000,-0.722618,36.44372,Nakuru,Nakuru,Nakuru
619404,Subukia_Moro/Oljoro_Orok_2,100000,0.00596,36.22768,Nakuru,Nakuru,Nakuru
619405,Nakuru_Ngei_Estate,120000,-0.292465,36.062917,Nakuru,Nakuru,Nakuru
619406,Nakuru_Rhonda_East,120000,-0.30858,36.05984,Nakuru,Nakuru,Nakuru
619407,Heshima_ Centre,140000,-0.242407,36.113282,Nakuru,Nakuru,Nakuru
619408,Engoshura_ Jandu,120000,-0.25875,36.107779,Nakuru,Nakuru,Nakuru
619409,Enengetia,120000,-0.681688,35.918638,Narok,Narok,Nakuru
619410,Macha,137739,-0.667673,36.468512,Nakuru,Nakuru,Nakuru
619411,Gilgil,456750,-0.50097,36.32354,Nakuru,Nakuru,Nakuru
619412,Elementaita,370000,-0.431117,36.260755,Nakuru,Nakuru,Nakuru
619413,Keringet_North_Olen,140000,-0.424205,35.690543,Nakuru,Nakuru,Nakuru
619414,Mbaruk,264036,-0.363075,36.181935,Nakuru,Nakuru,Nakuru
619415,Nakuru_Pipeline,100000,-0.330549,36.144065,Nakuru,Nakuru,Nakuru
619416,Nakuru_Lanet,670000,-0.298593,36.137294,Nakuru,Nakuru,Nakuru
619417,Nakuru_Railway_Station,670000,-0.283728,36.06865,Nakuru,Nakuru,Nakuru
619418,Nakuru_Milimani,240000,-0.275915,36.084395,Nakuru,Nakuru,Nakuru
619419,Nakuru_Barracks,660000,-0.270408,36.181352,Nakuru,Nakuru,Nakuru
619420,Molo,800000,-0.24049,35.728377,Nakuru,Nakuru,Nakuru
619421,Dundori,230000,-0.203187,36.257078,Nakuru,Nakuru,Nakuru
619422,Londiani_Hill,450000,-0.11176,35.727985,Kabarnet,Baringo,Nakuru
619423,Dundori_Primary,120000,-0.254718,36.233813,Nakuru,Nakuru,Nakuru
619424,Mogotio_2,750000,-0.022202,35.963515,Kabarnet,Baringo,Nakuru
619425,Nakuru_ Bahati_ Road,880000,-0.187832,36.123473,Nakuru,Nakuru,Nakuru
619426,Nakuru_Golf,1110000,-0.27174,36.06753,Nakuru,Nakuru,Nakuru
619427,Nakuru_Kapkures,750000,-0.30964,36.038132,Nakuru,Nakuru,Nakuru
619428,Soko Mjinga ,540000,-0.888375,36.58511,Nakuru,Nakuru,Nakuru
619429,Mbaruku_2,540000,-0.364758,36.230875,Nakuru,Nakuru,Nakuru
619430,Njoro Road,540000,-0.311582,35.992362,Nakuru,Nakuru,Nakuru
619431,Sobea,690000,-0.245445,35.941555,Nakuru,Nakuru,Nakuru
619432,Salgaa,450000,-0.20667,35.847449,Nakuru,Nakuru,Nakuru
619433,Nakuru_Gusii_Road,421173,-0.2855,36.07363,Nakuru,Nakuru,Nakuru
619434,Rumuruti,120000,0.263465,36.537915,Rumuruti,Laikipia,Nyahururu
619435,Mairo_Inya,130000,-0.000932,36.420018,Rumuruti,Laikipia,Nyahururu
619436,Marmanet_Ol_Jabet,130000,0.194867,36.36745,Rumuruti,Laikipia,Nyahururu
619437,Ndindika,104815,0.429605,36.348852,Rumuruti,Laikipia,Nyahururu
619438,Nyahururu,660000,0.037887,36.363397,Rumuruti,Laikipia,Nyahururu
619439,North_Kinangop,600000,-0.609607,36.560617,Rumuruti,Laikipia,Nyahururu
619440,Olkalou,800000,-0.232285,36.363468,Rumuruti,Laikipia,Nyahururu
619441,Laikipia_Campus,170000,0.032815,36.264475,Rumuruti,Laikipia,Nyahururu
619442,Njabini,106293,-0.72323,36.63192,Rumuruti,Laikipia,Nyahururu
619443,Kipipiri,101461,-0.39819,36.49447,Rumuruti,Laikipia,Nyahururu
619444,Ndaragwa,140000,-0.058728,36.508103,Rumuruti,Laikipia,Nyahururu
619445,Aberdare_Mikeu,815473,-0.37817,36.56059,Rumuruti,Laikipia,Nyahururu
619446,Oljoroorok,122984,-0.089291,36.349775,Rumuruti,Laikipia,Nyahururu
619447,Ngano,125780,-0.105398,36.27631,Rumuruti,Laikipia,Nyahururu
619448,Tumaini,120000,-0.241872,36.278052,Ol Kalou,Nyandarua,Nyahururu
619449,South_Kinangop,100000,-0.78306,36.593414,Rumuruti,Laikipia,Nyahururu
619450,Ndemi,120000,-0.311367,36.440727,Ol Kalou,Nyandarua,Nyahururu
619451,Shamata,110000,-0.202093,36.501925,Rumuruti,Laikipia,Nyahururu
619452,Turasha,120000,-0.492819,36.45297,Rumuruti,Laikipia,Nyahururu
619453,Suguta_Marmar,191664,0.836145,36.693767,Rumuruti,Laikipia,Nyahururu
619454,Ndunyu_Njeru,135000,-0.555533,36.537728,Rumuruti,Laikipia,Nyahururu
619455,Mairo_Inya_Ziwani,120000,0.028012,36.401409,Ol Kalou,Nyandarua,Nyahururu
619456,Ngarua,200000,0.36308,36.31477,Rumuruti,Laikipia,Nyahururu
619457,Cokereria,127551,-0.42255,36.34579,Rumuruti,Laikipia,Nyahururu
619458,Olkalau,150000,-0.27191,36.375253,Rumuruti,Laikipia,Nyahururu
619459,Nyandundo,450000,-0.122538,36.235832,Rumuruti,Laikipia,Nyahururu
619460,Nyahururu_Muthaiga,120000,0.028683,36.359423,Rumuruti,Laikipia,Nyahururu
619461,Primarosa,360000,-0.00574,36.359182,Rumuruti,Laikipia,Nyahururu
619462,Kimalewa,230000,0.783213,34.64072,Bungoma,Bungoma,Bungoma
619463,Lwakhakha,100000,0.789843,34.378912,Bungoma,Bungoma,Bungoma
619464,Samitsi,120000,0.461663,34.757357,Bungoma,Bungoma,Bungoma
619465,Kapsakwony,800000,0.841143,34.71346,Bungoma,Bungoma,Bungoma
619466,Kapkateny,105000,0.805115,34.62266,Bungoma,Bungoma,Bungoma
619467,Kamukuywa,87846,0.76321,34.78912,Bungoma,Bungoma,Bungoma
619468,Sirisia,96630,0.765777,34.498678,Bungoma,Bungoma,Bungoma
619469,Kimilili_Town,250000,0.792325,34.709282,Bungoma,Bungoma,Bungoma
619470,Cheptais,125780,0.803147,34.462895,Bungoma,Bungoma,Bungoma
619471,Misikhu,560000,0.71567,34.755595,Bungoma,Bungoma,Bungoma
619472,Machewa,130000,0.88093,34.81776,Kitale,Trans-Nzoia,Bungoma
619473,Eldoret_Kimumu,130000,0.550378,35.306847,Eldoret,Uasin Gishu,Eldoret
619474,Elgeyo_Border_Centre,100000,0.513677,35.427835,Eldoret,Uasin Gishu,Eldoret
619475,Kaptagat_Cheptigit,153730,0.41669,35.46705,Eldoret,Uasin Gishu,Eldoret
619476,Chepkoilel,1200000,0.556435,35.335517,Eldoret,Uasin Gishu,Eldoret
619477,Matunda,1080000,0.851707,35.115903,Eldoret,Uasin Gishu,Eldoret
619478,Leseru,765000,0.603032,35.178695,Eldoret,Uasin Gishu,Eldoret
619479,Eldoret_Polytechnic,142417,0.486842,35.262572,Eldoret,Uasin Gishu,Eldoret
619480,Soy,129133,0.68499,35.150998,Eldoret,Uasin Gishu,Eldoret
619481,Eldoret_Cheptiret,250000,0.359377,35.354863,Eldoret,Uasin Gishu,Eldoret
619482,Sirungai_Hill,270000,0.559033,34.925288,Eldoret,Uasin Gishu,Eldoret
619483,Eldoret_Airport,1150000,0.409465,35.232975,Eldoret,Uasin Gishu,Eldoret
619484,Eldoret_East,250000,0.507507,35.297112,Eldoret,Uasin Gishu,Eldoret
